#Identifiant;Libellé_du_site;Caractéristique_du_site;Adresse;Complément_d_adresse;Lieu_dit;Code_postal;Localité;Pays;latitude;longitude;Précision_du_géocodage;Numéro_de_téléphone;Changeur_de_monnaie;Distributeur_de_billets;Distributeur_de_timbres;Photocopie;Distributeur_Prêt_à_Poster;Affranchissement_Libre_Service;Bornes_de_rechargement_MONEO;Accessibilité_Absence_de_ressaut_de_plus_de_2_cm_de_haut;Accessibilité_Automate_d_affranchissement_avec_prise_audio;Accessibilité_Boucle_magnétique_en_état_de_fonctionnement;Accessibilité_Distributeur_de_billets_avec_prise_audio;Accessibilité_Entrée_autonome_en_fauteuil_roulant_possible;Accessibilité_Pas_d_escalier_ou_bandes_de_vigilance_présentes;Accessibilité_Présence_d_un_panneau_prioritaire
00001A;AMBERIEU EN BUGEY;Bureau de poste;38 RUE ALEXANDRE BERARD;;BP 602;01500;AMBERIEU EN BUGEY;FRANCE;45.9596;5.35802;Géocodé au numéro;3631;Oui;Oui;Non;Non;Non;Oui;Oui;Oui;Non;Oui;Oui;Oui;Non;Non
00002A;AMBERIEU EN DOMBES BP;Bureau de poste;240 RUE GOMBETTE;;;01330;AMBERIEUX EN DOMBES;FRANCE;45.996391;4.903349;Géocodé au numéro;3631;Non;Non;Non;Non;Non;Non;Non;Oui;Non;Oui;Non;Oui;Non;Non
00003A;AMBRONAY BP;Bureau de poste;PLACE DE LA BOUVERIE;;;01500;AMBRONAY;FRANCE;46.0061;5.36085;Géocodé au milieu de la rue;3631;Non;Non;Non;Non;Non;Non;Non;Non;Non;Non;Non;Non;Non;Oui
00004A;ANGLEFORT AP;Relais poste commerçant; ; ; ;01350;ANGLEFORT;FRANCE;45.9133;5.8089;Géocodé au milieu de la rue;0450564460;Non;Non;Non;Non;Non;Non;Non;Non;Non;Non;Non;Non;Non;Non
00005A;ARBENT BP;Bureau de poste;56 RUE DU GENERAL ANDREA;;;01100;ARBENT;FRANCE;46.295031;5.680664;Géocodé au numéro;3631;Non;Non;Non;Non;Non;Non;Non;Non;Non;Non;Non;Non;Non;Non
00006A;ARGIS AP;Relais poste commerçant;LES RAISINS D OR;HOTEL RESTAURANT;;01230;ARGIS;FRANCE;45.933;5.49078;Géocodé au centre de la commune;0474365112;Non;Non;Non;Non;Non;Non;Non;Non;Non;Non;Non;Non;Non;Non
00007A;BELLEGARDE ARLOD BP;Bureau de poste;16 RUE CENTRALE;;;01200;BELLEGARDE SUR VALSERINE;FRANCE;46.097558;5.815029;Géocodé au numéro;3631;Non;Non;Non;Non;Non;Non;Non;Non;Non;Non;Non;Non;Non;Non
00008A;ARS SUR FORMANS BP;Bureau de poste;RUE JEAN MARIE VIANNEY;;;01480;ARS SUR FORMANS;FRANCE;45.9929;4.82172;Géocodé au numéro;3631;Non;Non;Non;Non;Non;Non;Non;Non;Non;Non;Non;Non;Non;Non
00009A;ARTEMARE BP;Bureau de poste;13 RUE NEUVE;;;01510;ARTEMARE;FRANCE;45.8741;5.69329;Géocodé au numéro;3631;Non;Non;Non;Non;Non;Non;Non;Oui;Non;Oui;Non;Oui;Non;Oui
00010A;ATTIGNAT BP;Bureau de poste;83 RUE DE L ANCIEN MARCHE;;;01340;ATTIGNAT;FRANCE;46.2893;5.15864;Géocodé au numéro;3631;Non;Non;Non;Non;Non;Non;Non;Oui;Non;Oui;Non;Oui;Non;Non
00011A;BAGE LE CHATEL BP;Bureau de poste;RUE CONDAMNALE;;;01380;BAGE LE CHATEL;FRANCE;46.307695;4.92961;Géocodé au numéro;3631;Non;Non;Non;Non;Non;Non;Non;Non;Non;Non;Non;Non;Non;Non
00012A;BEAUPONT AP;Relais poste commerçant; ; ; ;01270;BEAUPONT;FRANCE;46.4103;5.26445;Géocodé au centre de la commune;0474512067;Non;Non;Non;Non;Non;Non;Non;Non;Non;Non;Non;Non;Non;Non
00013A;BEAUREGARD AP;Agence postale commnunale;99 RUE HECTOR BERLIOZ;MAIRIE;;01480;BEAUREGARD;FRANCE;46.002913;4.751099;Géocodé au numéro;0474607661;Non;Non;Non;Non;Non;Non;Non;Non;Non;Non;Non;Non;Non;Non
00014A;BELLIGNAT BP;Bureau de poste;1 AVENUE DE LA GARE;;;01100;BELLIGNAT;FRANCE;46.241585;5.628457;Géocodé au numéro;3631;Non;Non;Non;Non;Non;Non;Non;Oui;Non;Oui;Non;Oui;Non;Non
00015A;BELIGNEUX CAMP DE LA VALBONNE BP;Bureau de poste;CAMP MILITAIRE LA VALBONNE; ; ;01360;BELIGNEUX;FRANCE;45.849;5.12471;Géocodé au numéro;3631;Oui;Oui;Non;Non;Non;Oui;Non;Non;Non;Non;Non;Non;Non;Non
00016A;BELLEGARDE SUR VALSERINE PAL;Bureau de poste;52 B RUE DE LA REPUBLIQUE;;;01200;BELLEGARDE SUR VALSERINE;FRANCE;46.1071;5.82469;Géocodé au numéro;3631;Oui;Oui;Non;Non;Non;Oui;Oui;Oui;Non;Oui;Non;Oui;Non;Non
00017A;BELLEY;Bureau de poste;1 BOULEVARD DU MAIL;;;01300;BELLEY;FRANCE;45.7608;5.68797;Géocodé au numéro;3631;Oui;Oui;Non;Non;Non;Oui;Oui;Oui;Non;Oui;Oui;Oui;Non;Non
00018A;BEREYZIAT AP;Relais poste commerçant;LE BOURG; ; ;01340;BEREZIAT;FRANCE;46.3681;5.04498;Géocodé au centre de la commune;0474505485;Non;Non;Non;Non;Non;Non;Non;Non;Non;Non;Non;Non;Non;Non
00019A;BETTANT AP;Relais poste commerçant;RUE DE LA POSTE;;;01500;BETTANT;FRANCE;45.9434;5.36432;Géocodé au milieu de la rue;3631;Non;Non;Non;Non;Non;Non;Non;Non;Non;Non;Non;Non;Non;Non
00020A;BEYNOST BP;Bureau de poste;107 RUE DU MIDI;;;01700;BEYNOST;FRANCE;45.8365;4.9999;Géocodé au numéro;3631;Non;Non;Non;Non;Non;Non;Non;Oui;Non;Oui;Non;Oui;Non;Non
00021A;BILLIAT AP;Relais poste commerçant; ; ; ;01200;BILLIAT;FRANCE;46.0775;5.78444;Géocodé au milieu de la rue;0450599640;Non;Non;Non;Non;Non;Non;Non;Non;Non;Non;Non;Non;Non;Non
00022A;BIZIAT AP;Agence postale commnunale; ; ; ;01290;BIZIAT;FRANCE;46.2176;4.94274;Géocodé au centre de la commune;0474501071;Non;Non;Non;Non;Non;Non;Non;Non;Non;Non;Non;Non;Non;Non
00023A;LA BOISSE AP;Agence postale commnunale;31 PLACE DE LA MAIRIE; ; ;01120;LA BOISSE;FRANCE;45.8418;5.03248;Géocodé au numéro;0478068405;Non;Non;Non;Non;Non;Non;Non;Non;Non;Non;Non;Non;Non;Non
00024A;BOLOZON AP;Agence postale commnunale;LA GARE; ; ;01450;BOLOZON;FRANCE;46.1928;5.47389;Géocodé au centre de la commune;0474429228;Non;Non;Non;Non;Non;Non;Non;Non;Non;Non;Non;Non;Non;Non
00025A;BOURG EN BRESSE PREFECTURE;Bureau de poste;1 AVENUE ALPHONSE MUSCAT;;;01000;BOURG EN BRESSE;FRANCE;46.2028;5.22057;Géocodé au numéro;3631;Oui;Oui;Non;Oui;Non;Oui;Oui;Oui;Non;Oui;Oui;Oui;Oui;Oui
00026A;BREGNIER CORDON BP;Bureau de poste;LA BRUYERE;;;01300;BREGNIER CORDON;FRANCE;45.6479;5.61958;Géocodé au centre de la commune;3631;Non;Non;Non;Non;Non;Non;Non;Non;Non;Non;Non;Non;Non;Non
00027A;BRENOD AP;Relais poste commerçant;RUE PRINCIPALE;TABAC GUDIN MIREILLE; ;01110;BRENOD;FRANCE;46.0585;5.60488;Géocodé au centre de la commune;0474360296;Non;Non;Non;Non;Non;Non;Non;Non;Non;Non;Non;Non;Non;Non
00028A;CORGENON AP;Relais poste commerçant;152 CHEMIN NEUF;MAGASIN CAP ON LINE;CORGENON;01310;BUELLAS;FRANCE;46.198072;5.159369;Géocodé au numéro;3631;Non;Non;Non;Non;Non;Non;Non;Non;Non;Non;Non;Non;Non;Non
00029A;CERDON AP;Relais poste commerçant;GRANDE RUE;AU BON PAIN CAMPAGNARD; ;01450;CERDON;FRANCE;46.0806;5.46546;Géocodé au centre de la commune;0474399600;Non;Non;Non;Non;Non;Non;Non;Non;Non;Non;Non;Non;Non;Non
00030A;CEYZERIAT;Bureau de poste;RUE JEROME LALANDE; ; ;01250;CEYZERIAT;FRANCE;46.1792;5.32547;Géocodé au numéro;3631;Non;Non;Non;Non;Non;Non;Non;Non;Non;Oui;Non;Non;Non;Non
00031A;CEYZERIEU AP;Agence postale commnunale;LE BOURG; ; ;01350;CEYZERIEU;FRANCE;45.8355;5.72584;Géocodé au centre de la commune;0479879217;Non;Non;Non;Non;Non;Non;Non;Non;Non;Non;Non;Non;Non;Non
00032A;CHALAMONT BP;Bureau de poste;PLACE DU MARCHE; ; ;01320;CHALAMONT;FRANCE;45.9953;5.16956;Géocodé au centre de la commune;3631;Non;Non;Non;Non;Non;Non;Non;Oui;Non;Oui;Non;Oui;Non;Non
00035A;CHALLEX AP;Relais poste commerçant;554 RUE DE LA TREILLE;MAISON DE RETRAITE LES CYCLAMENS; ;01630;CHALLEX;FRANCE;46.1802;5.96925;Géocodé au numéro;0450564650;Non;Non;Non;Non;Non;Non;Non;Non;Non;Non;Non;Non;Non;Non
00036A;CHAMPAGNE EN VALROMEY BP;Bureau de poste;PLACE BRILLAT SAVARIN; ; ;01260;CHAMPAGNE EN VALROMEY;FRANCE;45.904706;5.679111;Géocodé au numéro;3631;Non;Non;Non;Non;Non;Non;Non;Oui;Non;Oui;Non;Oui;Non;Non
00037A;CHAMPDOR AP;Agence postale commnunale;LE VILLAGE; ; ;01110;CHAMPDOR;FRANCE;46.0157;5.59695;Géocodé au centre de la commune;0474363499;Non;Non;Non;Non;Non;Non;Non;Non;Non;Non;Non;Non;Non;Non
00038A;CHAMPFROMIER AP;Agence postale commnunale; ; ; ;01410;CHAMPFROMIER;FRANCE;46.1912;5.81428;Géocodé au centre de la commune;0450560484;Non;Non;Non;Non;Non;Non;Non;Non;Non;Non;Non;Non;Non;Non
00039A;CHANAY AP;Agence postale commnunale;VILLAGE; ; ;01420;CHANAY;FRANCE;46.0044;5.7852;Géocodé au centre de la commune;0450595220;Non;Non;Non;Non;Non;Non;Non;Non;Non;Non;Non;Non;Non;Non
00040A;CHANEINS AP;Agence postale commnunale;LE BOURG; ; ;01990;CHANEINS;FRANCE;46.098;4.85184;Géocodé au centre de la commune;0474558891;Non;Non;Non;Non;Non;Non;Non;Non;Non;Non;Non;Non;Non;Non
00043A;CHATEAU GAILLARD AP;Relais poste commerçant; ;SALON DE COIFFURE; ;01500;CHATEAU GAILLARD;FRANCE;45.9729;5.30566;Géocodé au milieu de la rue;0474381136;Non;Non;Non;Non;Non;Non;Non;Non;Non;Non;Non;Non;Non;Non
00044A;CHATILLON EN MICHAILLE BP;Bureau de poste;127 RUE DE LA POSTE;;;01200;CHATILLON EN MICHAILLE;FRANCE;46.142333;5.797952;Géocodé au numéro;3631;Non;Non;Non;Non;Non;Non;Non;Oui;Non;Oui;Non;Oui;Non;Non
00045A;CHATILLON LA PALUD AP;Relais poste commerçant; ; ; ;01320;CHATILLON LA PALUD;FRANCE;45.9757;5.25633;Géocodé au centre de la commune;0437610794;Non;Non;Non;Non;Non;Non;Non;Non;Non;Non;Non;Non;Non;Non
00046A;CHATILLON SUR CHALARONNE;Bureau de poste;270 AVENUE RAYMOND SARBACH;;;01400;CHATILLON SUR CHALARONNE;FRANCE;46.1197;4.9601;Géocodé au milieu de la rue;3631;Non;Oui;Non;Non;Non;Oui;Oui;Non;Non;Oui;Oui;Non;Non;Non
00047A;CHAVANNES SUR SURAN AP;Relais poste commerçant; ;LES FLORALIES TABAC PRESSE FLEURS; ;01250;CHAVANNES SUR SURAN;FRANCE;46.2652;5.42642;Géocodé au centre de la commune;0474517243;Non;Non;Non;Non;Non;Non;Non;Non;Non;Non;Non;Non;Non;Non
00048A;CHAVEYRIAT AP;Agence postale commnunale;VILLAGE; ; ;01660;CHAVEYRIAT;FRANCE;46.1964;5.06109;Géocodé au centre de la commune;0474519012;Non;Non;Non;Non;Non;Non;Non;Non;Non;Non;Non;Non;Non;Non
00049A;BOURG EN BRESSE FONTAINE BERNARD BP;Bureau de poste;14 RUE BERNARD; ; ;01000;BOURG EN BRESSE;FRANCE;46.205899;5.22814;Géocodé au numéro;3631;Oui;Oui;Non;Oui;Non;Oui;Oui;Oui;Non;Oui;Non;Oui;Oui;Non
00050A;CHAZEY BONS AP;Relais poste commerçant;ROUTE NATIONALE 504; ;BONS;01300;CHAZEY BONS;FRANCE;45.8039;5.68146;Géocodé au centre de la commune;0479817210;Non;Non;Non;Non;Non;Non;Non;Non;Non;Non;Non;Non;Non;Non
00051A;BOURG AMEDEE MERCIER BP;Bureau de poste;57 AVENUE AMEDEE MERCIER;;;01000;BOURG EN BRESSE;FRANCE;46.2035;5.24345;Géocodé au numéro;3631;Oui;Non;Non;Non;Non;Non;Non;Non;Non;Non;Non;Non;Non;Oui
00052A;CHEVRY AP;Agence postale commnunale;254 RUE SAINT MAURICE;;;01170;CHEVRY;FRANCE;46.2823;6.03687;Géocodé au centre de la commune;0450426144;Non;Non;Non;Non;Non;Non;Non;Non;Non;Non;Non;Non;Non;Non
00053A;CHEZERY FORENS AP;Agence postale commnunale; ; ; ;01410;CHEZERY FORENS;FRANCE;46.2232;5.86951;Géocodé au centre de la commune;0450567312;Non;Non;Non;Non;Non;Non;Non;Non;Non;Non;Non;Non;Non;Non
00054A;CIVRIEUX AP;Relais poste commerçant;LE VILLAGE;LA BASCULE; ;01390;CIVRIEUX;FRANCE;45.9201;4.8836;Géocodé au milieu de la rue;0478980529;Non;Non;Non;Non;Non;Non;Non;Non;Non;Non;Non;Non;Non;Non
00055A;COLIGNY BP;Bureau de poste;PLACE DE LA MAIRIE; ; ;01270;COLIGNY;FRANCE;46.3854;5.34705;Géocodé au centre de la commune;3631;Non;Oui;Non;Non;Non;Non;Non;Oui;Non;Oui;Oui;Oui;Non;Non
00056A;COLLONGES BP;Bureau de poste;134 RUE DU FORT; ; ;01550;COLLONGES;FRANCE;46.1371;5.9031;Géocodé au numéro;3631;Non;Non;Non;Non;Non;Non;Non;Oui;Non;Oui;Non;Oui;Non;Non
00057A;CONDEISSIAT AP;Agence postale commnunale;LE VILLAGE; ; ;01400;CONDEISSIAT;FRANCE;46.1576;5.07898;Géocodé au centre de la commune;0474514423;Non;Non;Non;Non;Non;Non;Non;Non;Non;Non;Non;Non;Non;Non
00058A;CONFORT AP;Relais poste commerçant;PLACE SOEUR ROSALIE RENDU;;;01200;CONFORT;FRANCE;46.1496;5.82215;Géocodé au milieu de la rue;0450560312;Non;Non;Non;Non;Non;Non;Non;Non;Non;Non;Non;Non;Non;Non
00059A;CORBONOD AP;Relais poste commerçant;370 GRANDE RUE;MAGASIN VIVAL;GIGNEZ;01420;CORBONOD;FRANCE;45.9676;5.8215;Géocodé au centre de la commune;0450561950;Non;Non;Non;Non;Non;Non;Non;Non;Non;Non;Non;Non;Non;Non
00060A;CORMARANCHE EN BUGEY AP;Agence postale commnunale; ; ; ;01110;CORMARANCHE EN BUGEY;FRANCE;45.9537;5.6089;Géocodé au centre de la commune;0474353319;Non;Non;Non;Non;Non;Non;Non;Non;Non;Non;Non;Non;Non;Non
00061A;CORMORANCHE SUR SAONE AP;Relais poste commerçant;15 RUE DU JET D EAU;;;01290;CORMORANCHE SUR SAONE;FRANCE;;;Non renseigné;0385362071;Non;Non;Non;Non;Non;Non;Non;Non;Non;Non;Non;Non;Non;Non
00062A;CORVEISSIAT AP;Agence postale commnunale;LE BOURG; ; ;01250;CORVEISSIAT;FRANCE;46.2436;5.48134;Géocodé au centre de la commune;0474507021;Non;Non;Non;Non;Non;Non;Non;Non;Non;Non;Non;Non;Non;Non
00063A;CRAS SUR REYSSOUZE AP;Relais poste commerçant;LE BOURG;VIVAL;;01340;CRAS SUR REYSSOUZE;FRANCE;46.3097;5.1657;Géocodé au centre de la commune;0474259260;Non;Non;Non;Non;Non;Non;Non;Non;Non;Non;Non;Non;Non;Non
00064A;CULOZ BP;Bureau de poste;19 B AVENUE JEAN FALCONNIER;LA ROSERAIE; ;01350;CULOZ;FRANCE;45.8477;5.78419;Géocodé au numéro;3631;Non;Oui;Non;Oui;Non;Oui;Non;Non;Oui;Oui;Non;Non;Non;Non
00065A;DAGNEUX AP;Agence postale commnunale;PLACE DES TILLEULS; ; ;01120;DAGNEUX;FRANCE;45.8517;5.06989;Géocodé au centre de la commune;0472257523;Non;Non;Non;Non;Non;Non;Non;Non;Non;Non;Non;Non;Non;Non
00066A;DIVONNE LES BAINS BP;Bureau de poste;PLACE DE L EGLISE;;;01220;DIVONNE LES BAINS;FRANCE;46.3572;6.14322;Géocodé au milieu de la rue;3631;Oui;Oui;Non;Oui;Non;Oui;Oui;Non;Non;Non;Non;Non;Non;Non
00067A;DOMPIERRE SUR VEYLE AP;Agence postale commnunale; ; ; ;01240;DOMPIERRE SUR VEYLE;FRANCE;46.0718;5.20533;Géocodé au milieu de la rue;0474329710;Non;Non;Non;Non;Non;Non;Non;Non;Non;Non;Non;Non;Non;Non
00068A;DORTAN BP;Bureau de poste;1 PLACE DE L HOTEL DE VILLE;;;01590;DORTAN;FRANCE;46.3181;5.65735;Géocodé au centre de la commune;3631;Non;Non;Non;Non;Non;Non;Non;Oui;Non;Oui;Non;Oui;Non;Non
00069A;ECHALLON AP;Relais poste commerçant; ; ; ;01130;ECHALLON;FRANCE;46.2123;5.73992;Géocodé au centre de la commune;0474764193;Non;Non;Non;Non;Non;Non;Non;Non;Non;Non;Non;Non;Non;Non
00070A;FAREINS BP;Bureau de poste;ROUTE DE FLECHERES;;;01480;FAREINS;FRANCE;46.0185;4.76121;Géocodé au numéro;3631;Non;Non;Non;Non;Non;Non;Non;Oui;Non;Oui;Non;Oui;Non;Non
00071A;FARGES AP;Agence postale commnunale; ; ; ;01550;FARGES;FRANCE;46.1667;5.90483;Géocodé au centre de la commune;0450563789;Non;Non;Non;Non;Non;Non;Non;Non;Non;Non;Non;Non;Non;Non
00072A;FEILLENS BP;Bureau de poste;815 GRANDE RUE; ; ;01570;FEILLENS;FRANCE;46.339;4.89226;Géocodé au milieu de la rue;3631;Non;Non;Non;Non;Non;Non;Non;Non;Non;Non;Non;Non;Non;Non
00073A;FERNEY VOLTAIRE;Bureau de poste;1 AVENUE VOLTAIRE;;;01210;FERNEY VOLTAIRE;FRANCE;46.256585;6.108932;Géocodé au numéro;3631;Oui;Oui;Non;Oui;Oui;Oui;Non;Oui;Oui;Oui;Oui;Oui;Non;Non
00074A;FOISSIAT BP;Bureau de poste;LE BOURG;;;01340;FOISSIAT;FRANCE;46.3713;5.17701;Géocodé au centre de la commune;3631;Non;Non;Non;Non;Non;Non;Non;Oui;Non;Oui;Non;Oui;Non;Non
00075A;GEX;Bureau de poste;2 RUE DES ACACIAS;;;01170;GEX;FRANCE;46.3329;6.05924;Géocodé au milieu de la rue;3631;Non;Oui;Non;Oui;Non;Oui;Oui;Oui;Non;Oui;Non;Oui;Non;Non
00076A;GRILLY AP;Agence postale commnunale;34 CHEMIN JACQUES BELAY; ; ;01220;GRILLY;FRANCE;46.3315;6.1142;Géocodé au milieu de la rue;0450203389;Non;Non;Non;Non;Non;Non;Non;Non;Non;Non;Non;Non;Non;Non
00077A;GUEREINS BP;Bureau de poste;RUE DU CENTRE;;;01090;GUEREINS;FRANCE;46.104311;4.776671;Géocodé au numéro;3631;Non;Non;Non;Non;Non;Non;Non;Non;Non;Non;Non;Non;Non;Non
00078A;HAUTEVILLE LOMPNES BP;Bureau de poste;350 RUE DE LA REPUBLIQUE; ; ;01110;HAUTEVILLE LOMPNES;FRANCE;45.976994;5.601861;Géocodé au numéro;3631;Non;Oui;Non;Non;Non;Oui;Oui;Oui;Non;Oui;Oui;Oui;Non;Non
00079A;HOTONNES AP;Relais poste commerçant; ; ; ;01260;HOTONNES;FRANCE;45.9978;5.69254;Géocodé au centre de la commune;0479877358;Non;Non;Non;Non;Non;Non;Non;Non;Non;Non;Non;Non;Non;Non
00080A;INJOUX GENISSIAT AP;Agence postale commnunale; ; ; ;01200;INJOUX GENISSIAT;FRANCE;46.0508;5.8056;Géocodé au milieu de la rue;0450599415;Non;Non;Non;Non;Non;Non;Non;Non;Non;Non;Non;Non;Non;Non
00081A;IZERNORE BP;Bureau de poste;551 GRANDE RUE;;;01580;IZERNORE;FRANCE;46.2201;5.5544;Géocodé au numéro;3631;Non;Oui;Non;Non;Non;Non;Non;Non;Non;Non;Oui;Non;Non;Non
00082A;JASSANS RIOTTIER BP;Bureau de poste;208 PLACE DE LIMELETTE; ; ;01480;JASSANS RIOTTIER;FRANCE;45.984;4.75741;Géocodé au numéro;3631;Oui;Oui;Non;Oui;Non;Oui;Oui;Non;Non;Oui;Oui;Non;Non;Non
00083A;JASSERON AP;Agence postale commnunale;PLACE ANDRE GALLAND; ; ;01250;JASSERON;FRANCE;46.2117;5.32515;Géocodé au numéro;0474300109;Non;Non;Non;Non;Non;Non;Non;Non;Non;Non;Non;Non;Non;Non
00084A;JUJURIEUX BP;Bureau de poste;PLACE DE L HOTEL DE VILLE;;;01640;JUJURIEUX;FRANCE;46.0389;5.41008;Géocodé au numéro;3631;Non;Non;Non;Non;Non;Non;Non;Oui;Non;Oui;Non;Oui;Non;Non
00085A;LAGNIEU;Bureau de poste;11 AVENUE DU PORT;;;01150;LAGNIEU;FRANCE;45.900307;5.347762;Géocodé au numéro;3631;Oui;Oui;Non;Non;Non;Oui;Oui;Oui;Non;Oui;Non;Oui;Non;Non
00086A;LANTENAY AP;Agence postale commnunale; ; ; ;01430;LANTENAY;FRANCE;46.0569;5.54097;Géocodé au centre de la commune;0474764327;Non;Non;Non;Non;Non;Non;Non;Non;Non;Non;Non;Non;Non;Non
00087A;LELEX BP;Bureau de poste;ROUTE DE MIJOUX; ; ;01410;LELEX;FRANCE;46.3036;5.94187;Géocodé au milieu de la rue;3631;Non;Oui;Non;Non;Non;Non;Non;Non;Non;Non;Non;Non;Non;Non
00088A;LENT AP;Agence postale commnunale;RUE DE LA POSTE; ; ;01240;LENT;FRANCE;46.1193;5.19681;Géocodé au numéro;0474225040;Non;Non;Non;Non;Non;Non;Oui;Non;Non;Non;Non;Non;Non;Non
00089A;LEYMENT AP;Agence postale commnunale; ; ; ;01150;LEYMENT;FRANCE;45.9233;5.29408;Géocodé au milieu de la rue;0474349067;Non;Non;Non;Non;Non;Non;Non;Non;Non;Non;Non;Non;Non;Non
00090A;LHUIS BP;Bureau de poste;LE BOURG; ; ;01680;LHUIS;FRANCE;45.746;5.53294;Géocodé au centre de la commune;3631;Non;Non;Non;Non;Non;Non;Non;Non;Non;Oui;Non;Non;Non;Non
00091A;LOYETTES AP;Agence postale commnunale;42 RUE DU BUGEY; ; ;01360;LOYETTES;FRANCE;45.7758;5.20442;Géocodé au centre de la commune;0478327150;Non;Non;Non;Non;Non;Non;Non;Non;Non;Non;Non;Non;Non;Non
00092A;MAILLAT AP;Agence postale commnunale;RUE DE L EGALITE; ; ;01430;MAILLAT;FRANCE;46.127463;5.53918;Géocodé au numéro;0474757235;Non;Non;Non;Non;Non;Non;Non;Non;Non;Non;Non;Non;Non;Non
00093A;MANZIAT AP;Relais poste commerçant;1230 GRANDE RUE;MME MARTY; ;01570;MANZIAT;FRANCE;46.36;4.90926;Géocodé au centre de la commune;0385239524;Non;Non;Non;Non;Non;Non;Non;Non;Non;Non;Non;Non;Non;Non
00094A;MARBOZ BP;Bureau de poste;6 RUE DE LA POSTE;;;01851;MARBOZ;FRANCE;46.3423326;5.2574800;Géocodé au milieu d un îlot;3631;Non;Non;Non;Non;Non;Non;Non;Non;Non;Non;Non;Non;Non;Non
00095A;MARLIEUX AP;Relais poste commerçant;AU BOURG; ; ;01240;MARLIEUX;FRANCE;46.0652;5.07392;Géocodé au centre de la commune;0474428005;Non;Non;Non;Non;Non;Non;Non;Non;Non;Non;Non;Non;Non;Non
00096A;MARTIGNAT AP;Agence postale commnunale;195 GRANDE RUE;MAIRIE; ;01100;MARTIGNAT;FRANCE;46.2104;5.60963;Géocodé au numéro;0474811294;Non;Non;Non;Non;Non;Non;Non;Non;Non;Non;Non;Non;Non;Non
00097A;MEILLONNAS AP;Agence postale commnunale;LA VILLE; ; ;01370;MEILLONNAS;FRANCE;46.2431;5.35009;Géocodé au centre de la commune;0474420661;Non;Non;Non;Non;Non;Non;Non;Non;Non;Non;Non;Non;Non;Non
00098A;MESSIMY SUR SAONE AP;Relais poste commerçant; ; ; ;01480;MESSIMY SUR SAONE;FRANCE;46.0483;4.7645;Géocodé au numéro;0474678038;Non;Non;Non;Non;Non;Non;Non;Non;Non;Non;Non;Non;Non;Non
00099A;MEXIMIEUX;Bureau de poste;7 PLACE LIEUTENANT GIRAUD;;;01800;MEXIMIEUX;FRANCE;45.9041;5.19298;Géocodé au milieu de la rue;3631;Oui;Oui;Non;Non;Non;Oui;Oui;Oui;Oui;Oui;Non;Oui;Non;Non
00100A;MEZERIAT BP;Bureau de poste;24 PLACE DU MARCHE; ; ;01660;MEZERIAT;FRANCE;46.2351;5.04631;Géocodé au centre de la commune;3631;Non;Non;Non;Non;Non;Non;Non;Oui;Non;Oui;Non;Oui;Non;Non
00101A;MIJOUX AP;Agence postale commnunale; ; ; ;01410;MIJOUX;FRANCE;46.3665;5.99573;Géocodé au centre de la commune;0450411146;Non;Non;Non;Non;Non;Non;Non;Non;Non;Non;Non;Non;Non;Non
00102A;MIONNAY AP;Relais poste commerçant;CHEMIN RONDE; ; ;01390;MIONNAY;FRANCE;45.8951;4.92962;Géocodé au centre de la commune;0478910557;Non;Non;Non;Non;Non;Non;Non;Non;Non;Non;Non;Non;Non;Non
00103A;MIRIBEL;Bureau de poste;SQUARE LUCIEN AGNEL;;;01700;MIRIBEL;FRANCE;45.82408;4.950498;Géocodé au numéro;3631;Oui;Oui;Non;Non;Non;Oui;Oui;Oui;Non;Oui;Non;Oui;Non;Non
00104A;MISERIEUX AP;Relais poste commerçant;GRANDE RUE;STE GENIVAL VIVAL SUPERETTE; ;01600;MISERIEUX;FRANCE;45.9755;4.81019;Géocodé au numéro;0474005258;Non;Non;Non;Non;Non;Non;Non;Non;Non;Non;Non;Non;Non;Non
00105A;MONTAGNAT AP;Agence postale commnunale;135 CHEMIN DE L EGLISE; ; ;01250;MONTAGNAT;FRANCE;46.1716;5.28693;Géocodé au milieu de la rue;0474426743;Non;Non;Non;Non;Non;Non;Non;Non;Non;Non;Non;Non;Non;Non
00106A;MONTLUEL BP;Bureau de poste;226 AVENUE DE LA GARE; ; ;01120;MONTLUEL;FRANCE;45.8498;5.05731;Géocodé au numéro;3631;Oui;Oui;Non;Non;Non;Oui;Non;Non;Non;Oui;Oui;Non;Non;Non
00107A;MONTMERLE SUR SAONE BP;Bureau de poste;6 PLACE DE L EGLISE;;;01090;MONTMERLE SUR SAONE;FRANCE;46.080707;4.758604;Géocodé au numéro;3631;Non;Non;Non;Non;Non;Non;Non;Oui;Non;Oui;Non;Oui;Non;Non
00108A;MONTREAL LA CLUSE;Bureau de poste;18 AVENUE DE BRESSE; ; ;01460;MONTREAL LA CLUSE;FRANCE;46.171577;5.574253;Géocodé au numéro;3631;Non;Oui;Non;Non;Non;Oui;Non;Oui;Oui;Oui;Non;Oui;Non;Non
00109A;MONTREVEL EN BRESSE;Bureau de poste;9 PLACE DU 3 SEPTEMBRE;;;01340;MONTREVEL EN BRESSE;FRANCE;46.3375;5.1289;Géocodé au milieu de la rue;3631;Non;Non;Non;Non;Non;Oui;Non;Non;Non;Non;Non;Non;Non;Non
00110A;NURIEUX VOLOGNAT BP;Bureau de poste;31 ROUTE DE BERTHIAND;;;01460;NURIEUX VOLOGNAT;FRANCE;46.186;5.52777;Géocodé au numéro;3631;Non;Non;Non;Non;Non;Non;Non;Non;Non;Non;Non;Non;Non;Non
00111A;NANTUA BP;Bureau de poste;6 RUE DES MONTS D AIN; ; ;01130;NANTUA;FRANCE;46.1511;5.60574;Géocodé au numéro;3631;Non;Non;Non;Non;Non;Non;Non;Oui;Non;Oui;Non;Oui;Non;Oui
00112A;NEUVILLE LES DAMES BP;Bureau de poste;RUE DE LA POSTE;;;01400;NEUVILLE LES DAMES;FRANCE;46.1615;5.00421;Géocodé au milieu de la rue;3631;Non;Non;Non;Non;Non;Non;Non;Non;Non;Oui;Non;Non;Non;Non
00113A;NEUVILLE SUR AIN AP;Relais poste commerçant;583 RUE PIERRE GOUJON;TABAC PRESSE MR GOUTTE;;01160;NEUVILLE SUR AIN;FRANCE;46.0799;5.37229;Géocodé au milieu de la rue;3631;Non;Non;Non;Non;Non;Non;Non;Non;Non;Non;Non;Non;Non;Non
00114A;LES NEYROLLES AP;Relais poste commerçant;2 PLACE DES VIGNETTES;MAGASIN RELAIS DES MOUSQUETAIRES;;01130;LES NEYROLLES;FRANCE;46.1424;5.63377;Géocodé au numéro;0474751529;Non;Non;Non;Non;Non;Non;Non;Non;Non;Non;Non;Non;Non;Non
00115A;NEYRON AP;Relais poste commerçant; ; ; ;01700;NEYRON;FRANCE;45.8153;4.93265;Géocodé au numéro;0478553935;Non;Non;Non;Non;Non;Non;Non;Non;Non;Non;Non;Non;Non;Non
00116A;OYONNAX;Bureau de poste;69 COURS DE VERDUN;;;01100;OYONNAX;FRANCE;46.260001;5.648003;Géocodé au numéro;3631;Oui;Oui;Non;Non;Non;Oui;Oui;Oui;Non;Oui;Oui;Oui;Non;Non
00117A;PARCIEUX AP;Agence postale commnunale;RUE DE LA FONTAINE; ; ;01600;PARCIEUX;FRANCE;45.9155;4.82408;Géocodé au numéro;0437929174;Non;Non;Non;Non;Non;Non;Non;Non;Non;Non;Non;Non;Non;Non
00118A;PERON AP;Relais poste commerçant;ZA DU PRE MUNNY;INTERMARCHE CONTACT SAS FERNEIGE; ;01630;PERON;FRANCE;46.1883;5.92446;Géocodé au milieu de la rue;3631;Non;Non;Non;Non;Non;Non;Non;Non;Non;Non;Non;Non;Non;Non
00119A;PERONNAS BP;Bureau de poste;ALLEE DE LA GRANGE MAGNIEN;;;01960;PERONNAS;FRANCE;46.178553;5.205706;Géocodé au numéro;3631;Non;Non;Non;Non;Non;Oui;Non;Non;Non;Oui;Non;Non;Non;Oui
00120A;PEYRIEU AP;Relais poste commerçant; ;MAGASIN VIVAL; ;01300;PEYRIEU;FRANCE;45.6772;5.67702;Géocodé au centre de la commune;0479420013;Non;Non;Non;Non;Non;Non;Non;Non;Non;Non;Non;Non;Non;Non
00121A;POLLIAT BP;Bureau de poste;PLACE DE LA POSTE;;;01310;POLLIAT;FRANCE;46.2481;5.12651;Géocodé au numéro;3631;Non;Non;Non;Non;Non;Non;Non;Non;Non;Non;Non;Non;Non;Non
00122A;PONCIN BP;Bureau de poste;1 AVENUE DU PARC; ; ;01450;PONCIN;FRANCE;46.085585;5.405864;Géocodé au numéro;3631;Non;Non;Non;Non;Non;Non;Non;Oui;Non;Oui;Non;Oui;Non;Non
00123A;PONT D AIN;Bureau de poste;8 RUE LOUISE DE SAVOIE;;;01160;PONT D AIN;FRANCE;46.0497;5.34111;Géocodé au numéro;3631;Non;Non;Non;Non;Non;Non;Non;Oui;Non;Oui;Non;Oui;Non;Non
00124A;PONT DE VAUX BP;Bureau de poste;77 RUE MAL DE LATTRE DE TASSIGNY; ; ;01190;PONT DE VAUX;FRANCE;46.4323;4.94105;Géocodé au centre de la commune;3631;Non;Non;Non;Non;Non;Non;Non;Non;Non;Non;Non;Non;Non;Oui
00125A;PONT DE VEYLE;Bureau de poste;18 RUE DE LA POSTE;;;01290;PONT DE VEYLE;FRANCE;46.2636;4.88699;Géocodé au numéro;3631;Non;Non;Non;Non;Non;Oui;Non;Non;Non;Non;Non;Non;Non;Non
00126A;POUGNY AP;Relais poste commerçant; ; ; ;01550;POUGNY;FRANCE;46.1396;5.9502;Géocodé au centre de la commune;3631;Non;Non;Non;Non;Non;Non;Non;Non;Non;Non;Non;Non;Non;Non
00127A;PREVESSIN CERN BP;Bureau de poste;ROUTE DE ST GENIS; ; ;01280;PREVESSIN MOENS;FRANCE;46.2565;6.07993;Géocodé au centre de la commune;3631;Non;Non;Non;Non;Non;Non;Non;Non;Non;Non;Non;Non;Non;Non
00128A;PRIAY AP;Relais poste commerçant; ; ; ;01160;PRIAY;FRANCE;46.0033;5.2893;Géocodé au numéro;0474356270;Non;Non;Non;Non;Non;Non;Non;Non;Non;Non;Non;Non;Non;Non
00129A;REPLONGES BP;Bureau de poste;535 ROUTE DU CREUX;;;01750;REPLONGES;FRANCE;46.3091;4.88472;Géocodé au centre de la commune;3631;Non;Non;Non;Non;Non;Non;Non;Non;Non;Non;Non;Non;Non;Non
00130A;REYRIEUX BP;Bureau de poste;ROUTE DE REYRIEUX; ; ;01600;REYRIEUX;FRANCE;45.9368;4.81811;Géocodé au centre de la commune;3631;Non;Non;Non;Oui;Non;Non;Non;Oui;Non;Oui;Non;Oui;Non;Non
00131A;RUFFIEU AP;Agence postale commnunale; ; ; ;01260;RUFFIEU;FRANCE;45.9934;5.66378;Géocodé au centre de la commune;0479877119;Non;Non;Non;Non;Non;Non;Non;Non;Non;Non;Non;Non;Non;Non
00132A;SAINT ANDRE DE CORCY BP;Bureau de poste;LES MILLIERES; ; ;01390;ST ANDRE DE CORCY;FRANCE;45.9245;4.95337;Géocodé au centre de la commune;3631;Oui;Non;Non;Non;Non;Oui;Non;Non;Non;Oui;Non;Non;Non;Oui
00133A;SAINT BENOIT AP;Relais poste commerçant; ; ; ;01300;ST BENOIT;FRANCE;45.6944;5.58738;Géocodé au centre de la commune;0474397523;Non;Non;Non;Non;Non;Non;Non;Non;Non;Non;Non;Non;Non;Non
00134A;SAINT BERNARD AP;Agence postale commnunale;290 RUE DE LA SAONE; ; ;01600;ST BERNARD;FRANCE;45.9451;4.73619;Géocodé au numéro;0474007624;Non;Non;Non;Non;Non;Non;Non;Non;Non;Non;Non;Non;Non;Non
00135A;SAINT CYR SUR MENTHON AP;Relais poste commerçant; ; ; ;01380;ST CYR SUR MENTHON;FRANCE;46.2756;4.97382;Géocodé au centre de la commune;0385363517;Non;Non;Non;Non;Non;Non;Non;Non;Non;Non;Non;Non;Non;Non
00136A;ST DENIS EN BUGEY BP;Bureau de poste;PLACE ALEXANDRE BERARD;;;01500;ST DENIS EN BUGEY;FRANCE;45.9518;5.3285;Géocodé au milieu de la rue;3631;Non;Non;Non;Non;Non;Non;Non;Oui;Non;Oui;Non;Oui;Non;Non
00137A;SAINT DIDIER D AUSSIAT AP;Relais poste commerçant;LE BOURG; ; ;01340;ST DIDIER D AUSSIAT;FRANCE;46.3073;5.06147;Géocodé au centre de la commune;0474505479;Non;Non;Non;Non;Non;Non;Non;Non;Non;Non;Non;Non;Non;Non
00138A;SAINT DIDIER SUR CHALARONNE BP;Bureau de poste;23 ALLEE DU CENTRE;;;01140;ST DIDIER SUR CHALARONNE;FRANCE;46.1773;4.81613;Géocodé au milieu de la rue;3631;Non;Non;Non;Non;Non;Non;Non;Oui;Non;Oui;Non;Oui;Non;Non
00139A;SAINT ETIENNE DU BOIS BP;Bureau de poste;190 RUE CENTRALE; ; ;01370;ST ETIENNE DU BOIS;FRANCE;46.286;5.29255;Géocodé au numéro;3631;Non;Non;Non;Non;Non;Non;Non;Non;Non;Non;Non;Non;Non;Non
00140A;SAINT ETIENNE SUR CHALARONNE AP;Agence postale commnunale; ; ; ;01140;ST ETIENNE SUR CHALARONNE;FRANCE;46.1476;4.86765;Géocodé au milieu de la rue;0474242982;Non;Non;Non;Non;Non;Non;Non;Non;Non;Non;Non;Non;Non;Non
00141A;SAINT GENIS POUILLY BP;Bureau de poste;119 AVENUE DE LA REPUBLIQUE; ; ;01630;ST GENIS POUILLY;FRANCE;46.2434;6.02509;Géocodé au numéro;3631;Oui;Oui;Non;Oui;Non;Oui;Oui;Oui;Non;Oui;Non;Oui;Non;Non
00142A;SAINT GERMAIN DE JOUX AP;Relais poste commerçant;RUE DU COMMERCE;EPICERIE TABAC; ;01130;ST GERMAIN DE JOUX;FRANCE;46.1799;5.7381;Géocodé au milieu de la rue;0450598223;Non;Non;Non;Non;Non;Non;Non;Non;Non;Non;Non;Non;Non;Non
00143A;SAINT JEAN DE GONVILLE AP;Relais poste commerçant;120 RUE DE LA LOUVATIERE; ; ;01630;ST JEAN DE GONVILLE;FRANCE;46.2125;5.95293;Géocodé au milieu de la rue;0450564052;Non;Non;Non;Non;Non;Non;Non;Non;Non;Non;Non;Non;Non;Non
00144A;ST JEAN DE NIOST AP;Relais poste commerçant; ; ; ;01800;ST JEAN DE NIOST;FRANCE;45.845;5.21697;Géocodé au milieu de la rue;0474611395;Non;Non;Non;Non;Non;Non;Non;Non;Non;Non;Non;Non;Non;Non
00145A;SAINT JEAN LE VIEUX BP;Bureau de poste;PLACE DU CHAMP DE FOIRE;;;01640;ST JEAN LE VIEUX;FRANCE;46.0284;5.38991;Géocodé au numéro;3631;Non;Non;Non;Non;Non;Non;Non;Non;Non;Non;Non;Non;Non;Non
00146A;ST JEAN SUR REYSSOUZE AP;Relais poste commerçant; ; ;LE VILLAGE;01560;ST JEAN SUR REYSSOUZE;FRANCE;46.3969;5.06234;Géocodé au centre de la commune;0474526526;Non;Non;Non;Non;Non;Non;Non;Non;Non;Non;Non;Non;Non;Non
00147A;SAINT JULIEN SUR REYSSOUZE AP;Agence postale commnunale;LE VILLAGE; ; ;01560;ST JULIEN SUR REYSSOUZE;FRANCE;46.4018;5.11115;Géocodé au centre de la commune;0474526100;Non;Non;Non;Non;Non;Non;Non;Non;Non;Non;Non;Non;Non;Non
00148A;ST LAURENT SUR SAONE BP;Bureau de poste;23 RUE DE LA POSTE;;;01750;ST LAURENT SUR SAONE;FRANCE;46.3036;4.84036;Géocodé au numéro;3631;Non;Non;Non;Non;Non;Non;Non;Oui;Non;Oui;Non;Oui;Non;Non
00149A;SAINT MARTIN DU FRESNE AP;Agence postale commnunale;2 RUE DU STADE; ; ;01430;ST MARTIN DU FRENE;FRANCE;46.139742;5.552613;Géocodé au numéro;0474757024;Non;Non;Non;Non;Non;Non;Non;Non;Non;Non;Non;Non;Non;Non
00150A;APC SAINT MARTIN DU MONT AP;Relais poste commerçant;PLACE DE L EGLISE;LE TEMPS DES COURSES;;01160;ST MARTIN DU MONT;FRANCE;46.1017;5.32803;Géocodé au centre de la commune;0474355382;Non;Non;Non;Non;Non;Non;Non;Non;Non;Non;Non;Non;Non;Non
00151A;SAINT MAURICE DE BEYNOST BP;Bureau de poste;CITE DES FOLLIETS;92 BATIMENT ARC EN CIEL;;01700;ST MAURICE DE BEYNOST;FRANCE;45.8303;4.97963;Géocodé au numéro;3631;Non;Oui;Non;Non;Non;Non;Oui;Oui;Non;Oui;Non;Oui;Non;Oui
00152A;SAINT MAURICE DE GOURDANS BP;Bureau de poste;2 PLACE DE L EGLISE;;;01800;ST MAURICE DE GOURDANS;FRANCE;45.8215;5.19555;Géocodé au milieu de la rue;3631;Non;Non;Non;Non;Non;Non;Non;Non;Non;Non;Non;Non;Non;Non
00153A;ST MAURICE DE REMENS BP;Bureau de poste;RUE DE LA LIBERATION;;;01500;ST MAURICE DE REMENS;FRANCE;45.959105;5.27598;Géocodé au numéro;3631;Non;Non;Non;Non;Non;Non;Non;Non;Non;Non;Non;Non;Non;Non
00154A;SAINT NIZIER LE BOUCHOUX AP;Agence postale commnunale; ; ; ;01560;ST NIZIER LE BOUCHOUX;FRANCE;46.4596;5.15013;Géocodé au centre de la commune;0474529057;Non;Non;Non;Non;Non;Non;Non;Non;Non;Non;Non;Non;Non;Non
00155A;SAINT PAUL DE VARAX;Bureau de poste;PLACE LOUIS JOURDAN;;;01240;ST PAUL DE VARAX;FRANCE;46.0988;5.12925;Géocodé au milieu de la rue;3631;Non;Non;Non;Non;Non;Non;Non;Non;Non;Non;Non;Non;Non;Non
00156A;SAINT RAMBERT EN BUGEY BP;Bureau de poste;RUE DE LA GRENETTE; ; ;01230;ST RAMBERT EN BUGEY;FRANCE;45.9484;5.43993;Géocodé au numéro;3631;Non;Non;Non;Non;Non;Non;Non;Oui;Non;Oui;Non;Oui;Non;Non
00157A;SAINT SORLIN EN BUGEY AP;Relais poste commerçant;RUE SOUS LE BOURG;;;01150;ST SORLIN EN BUGEY;FRANCE;45.8825;5.37232;Géocodé au milieu de la rue;0474359264;Non;Non;Non;Non;Non;Non;Non;Non;Non;Non;Non;Non;Non;Non
00158A;SAINT TRIVIER DE COURTES BP;Bureau de poste;PLACE FERNAND RUDE;;;01560;ST TRIVIER DE COURTES;FRANCE;46.4589;5.08413;Géocodé au milieu de la rue;3631;Non;Non;Non;Non;Non;Non;Non;Non;Non;Oui;Non;Non;Non;Non
00159A;SAINT TRIVIER SUR MOIGNANS BP;Bureau de poste;PLACE DE LA MAIRIE; ; ;01990;ST TRIVIER SUR MOIGNANS;FRANCE;46.0726;4.89816;Géocodé au centre de la commune;3631;Non;Non;Non;Non;Non;Non;Non;Non;Non;Oui;Non;Non;Non;Non
00160A;SAINT VULBAS AP;Agence postale commnunale;827 RUE CLAIRES FONTAINES;;;01150;ST VULBAS;FRANCE;45.8337;5.29112;Géocodé au milieu de la rue;0474465063;Non;Non;Non;Non;Non;Non;Non;Non;Non;Non;Non;Non;Non;Non
00161A;SAULT BRENAZ AP;Agence postale commnunale;36 GRANDE RUE;;;01150;SAULT BRENAZ;FRANCE;45.8553;5.41057;Géocodé au centre de la commune;3631;Non;Non;Non;Non;Non;Non;Non;Non;Non;Non;Non;Non;Non;Non
00162A;SERMOYER AP;Agence postale commnunale; ; ; ;01190;SERMOYER;FRANCE;46.4986;4.98097;Géocodé au centre de la commune;0385518000;Non;Non;Non;Non;Non;Non;Non;Non;Non;Non;Non;Non;Non;Non
00163A;SERRIERES DE BRIORD BP;Bureau de poste;LE BOURG; ; ;01470;SERRIERES DE BRIORD;FRANCE;45.8075;5.44839;Géocodé au centre de la commune;3631;Non;Non;Non;Non;Non;Non;Non;Non;Non;Non;Non;Non;Non;Non
00164A;SEYSSEL BP;Bureau de poste;8 QUAI DU GENERAL DE GAULLE; ; ;01420;SEYSSEL;FRANCE;45.957833;5.831895;Géocodé au numéro;3631;Non;Non;Non;Non;Non;Non;Non;Oui;Non;Oui;Non;Oui;Non;Non
00165A;SIMANDRE AP;Relais poste commerçant; ; ; ;01250;SIMANDRE SUR SURAN;FRANCE;46.2248;5.41625;Géocodé au centre de la commune;0474217485;Non;Non;Non;Non;Non;Non;Non;Non;Non;Non;Non;Non;Non;Non
00166A;TENAY BP;Bureau de poste;LE BOURG; ; ;01230;TENAY;FRANCE;45.918945;5.50926;Géocodé au numéro;3631;Non;Non;Non;Non;Non;Non;Non;Oui;Non;Oui;Non;Oui;Non;Non
00167A;THEZILLIEU AP;Agence postale commnunale; ; ; ;01110;THEZILLIEU;FRANCE;45.8932;5.59925;Géocodé au centre de la commune;0474375741;Non;Non;Non;Non;Non;Non;Non;Non;Non;Non;Non;Non;Non;Non
00168A;THOIRY BP;Bureau de poste;342 RUE BRIAND STRESEMANN;;;01710;THOIRY;FRANCE;46.2365;5.98043;Géocodé au numéro;3631;Non;Non;Non;Non;Non;Oui;Non;Oui;Non;Oui;Non;Oui;Non;Oui
00169A;THOISSEY;Bureau de poste;23 RUE DE L EGLISE;CITE ADMINISTRATIVE;;01140;THOISSEY;FRANCE;46.173467;4.800494;Géocodé au numéro;3631;Non;Non;Non;Non;Non;Non;Non;Non;Non;Non;Non;Non;Non;Non
00170A;TORCIEU AP;Relais poste commerçant;LE BOURG; ; ;01230;TORCIEU;FRANCE;45.923;5.39535;Géocodé au centre de la commune;0474362741;Non;Non;Non;Non;Non;Non;Non;Non;Non;Non;Non;Non;Non;Non
00171A;TOSSIAT AP;Agence postale commnunale; ; ; ;01250;TOSSIAT;FRANCE;46.139315;5.31675;Géocodé au numéro;0474423092;Non;Non;Non;Non;Non;Non;Non;Non;Non;Non;Non;Non;Non;Non
00172A;TRAMOYES AP;Relais poste commerçant;105 ROUTE DE LA BOISSE;MULTISERVICE MR PUTEY; ;01390;TRAMOYES;FRANCE;45.8746;4.96587;Géocodé au numéro;0478910533;Non;Non;Non;Non;Non;Non;Non;Non;Non;Non;Non;Non;Non;Non
00173A;TREFFORT CUISIAT BP;Bureau de poste;PLACE DU CHAMP DE FOIRE; ; ;01370;TREFFORT CUISIAT;FRANCE;46.2703;5.36777;Géocodé au milieu de la rue;3631;Non;Oui;Non;Non;Non;Non;Non;Oui;Non;Oui;Non;Oui;Non;Non
00174A;TREVOUX;Bureau de poste;2 BOULEVARD DES COMBATTANTS;;;01600;TREVOUX;FRANCE;45.9399;4.78077;Géocodé au numéro;3631;Oui;Oui;Non;Oui;Non;Oui;Oui;Oui;Non;Oui;Non;Oui;Non;Non
00175A;VAUX EN BUGEY AP;Relais poste commerçant;10 RUE DE L'EGLISE;TABAC PRESSE ANCHISE CHRISTIAN; ;01150;VAUX EN BUGEY;FRANCE;45.9278;5.35028;Géocodé au milieu de la rue;0474357040;Non;Non;Non;Non;Non;Non;Non;Non;Non;Non;Non;Non;Non;Non
00176A;VERJON AP;Agence postale commnunale;LE VILLAGE; ; ;01270;VERJON;FRANCE;46.346;5.35058;Géocodé au centre de la commune;0474515435;Non;Non;Non;Non;Non;Non;Non;Non;Non;Non;Non;Non;Non;Non
00177A;VERSAILLEUX AP;Relais poste commerçant;LE BOURG; ; ;01330;VERSAILLEUX;FRANCE;45.9808;5.10314;Géocodé au centre de la commune;0474982622;Non;Non;Non;Non;Non;Non;Non;Non;Non;Non;Non;Non;Non;Non
00178A;LE BALMAY VIEU D IZENAVE AP;Agence postale commnunale;111 RUE DE LA POSTE;;LE BALMAY;01430;VIEU D IZENAVE;FRANCE;46.08;5.5299;Géocodé au centre de la commune;0474763505;Non;Non;Non;Non;Non;Non;Non;Non;Non;Non;Non;Non;Non;Non
00179A;VILLARS LES DOMBES;Bureau de poste;25 PLACE DE L HOTEL DE VILLE;;;01330;VILLARS LES DOMBES;FRANCE;46.001314;5.029721;Géocodé au numéro;3631;Oui;Oui;Non;Non;Non;Oui;Non;Non;Non;Non;Non;Non;Non;Oui
00180A;VILLEBOIS AP;Agence postale commnunale;PLACE DE LA VERCHERE; ; ;01150;VILLEBOIS;FRANCE;45.8479;5.43459;Géocodé au centre de la commune;0474366268;Non;Non;Non;Non;Non;Non;Non;Non;Non;Non;Non;Non;Non;Non
00181A;VILLENEUVE AP;Agence postale commnunale;10 ROUTE DE ST TRIVIER; ; ;01480;VILLENEUVE;FRANCE;46.0204;4.83562;Géocodé au centre de la commune;0474007474;Non;Non;Non;Non;Non;Non;Non;Non;Non;Non;Non;Non;Non;Non
00182A;VILLEREVERSURE AP;Relais poste commerçant;1 PLACE DE LA GARE;AU CROISSANT DE LUNE; ;01250;VILLEREVERSURE;FRANCE;46.1854;5.38262;Géocodé au centre de la commune;0474306587;Non;Non;Non;Non;Non;Non;Non;Non;Non;Non;Non;Non;Non;Non
00183A;VILLIEU LOYES MOLLON AP;Relais poste commerçant;302 AVENUE CHARLES DE GAULLE;VIVAL; ;01800;VILLIEU LOYES MOLLON;FRANCE;45.9204;5.22332;Géocodé au numéro;0474610200;Non;Non;Non;Non;Non;Non;Non;Non;Non;Non;Non;Non;Non;Non
00184A;VIRIAT BP;Agence postale commnunale;332 RUE PROSPER CONVERT;;;01440;VIRIAT;FRANCE;46.2541;5.21554;Géocodé au numéro;0474148314;Non;Non;Non;Non;Non;Non;Non;Non;Non;Oui;Non;Non;Non;Non
00185A;VIRIEU LE GRAND BP;Bureau de poste;PLACE HONORE D URFE;;;01510;VIRIEU LE GRAND;FRANCE;45.8479;5.65115;Géocodé au milieu de la rue;3631;Non;Oui;Non;Non;Non;Non;Non;Non;Non;Non;Non;Non;Non;Non
00186A;VIRIGNIN AP;Relais poste commerçant;ROUTE NATIONALE;;;01300;VIRIGNIN;FRANCE;45.7174;5.71333;Géocodé au centre de la commune;0479425244;Non;Non;Non;Non;Non;Non;Non;Non;Non;Non;Non;Non;Non;Non
00187A;VONNAS BP;Bureau de poste;56 RUE CLAUDE MOREL; ; ;01540;VONNAS;FRANCE;46.2259;4.99338;Géocodé au centre de la commune;3631;Non;Non;Non;Non;Non;Non;Non;Non;Non;Oui;Non;Non;Non;Non
00188A;PREVESSIN MOENS BP;Bureau de poste;88 CHEMIN DE L EGLISE;LE COLOMBIER;;01280;PREVESSIN MOENS;FRANCE;46.2529;6.07648;Géocodé au milieu de la rue;3631;Non;Non;Non;Non;Non;Non;Non;Non;Non;Non;Non;Non;Non;Non
00189A;MIRIBEL LES ECHETS AP;Relais poste commerçant; ; ; ;01700;MIRIBEL;FRANCE;45.8241;4.95062;Géocodé au numéro;0437260407;Non;Non;Non;Non;Non;Non;Non;Non;Non;Non;Non;Non;Non;Non
00189B;PIERREFONDS AEROPORT BP;Bureau de poste;ROUTE DE L AEROPORT;;;97410;ST PIERRE;FRANCE;-21.320235;55.428385;Géocodé au numéro;3631;Non;Non;Non;Non;Non;Non;Non;Non;Non;Non;Non;Non;Non;Non
00190B;SAINT FIEL AP;Relais poste commerçant;4 PLACE DE L EGLISE;AUBERGE DE SAINT FIEL JOELLE MOREAU;;23000;ST FIEL;FRANCE;46.213583;1.895016;Géocodé au numéro;0555418333;Non;Non;Non;Non;Non;Non;Non;Non;Non;Non;Non;Non;Non;Non
00191B;BERCENAY EN OTHE AP;Relais poste commerçant;12 RUE DE CHAMOY;BOULANGERIE BECKER;;10190;BERCENAY EN OTHE;FRANCE;48.1978;3.89697;Géocodé au numéro;0325758042;Non;Non;Non;Non;Non;Non;Non;Non;Non;Non;Non;Non;Non;Non
00193A;AMBERIEU GARE BP;Bureau de poste;AVENUE ROGER SALENGRO;;;01500;AMBERIEU EN BUGEY;FRANCE;45.954;5.3437;Géocodé au milieu d un îlot;3631;Oui;Oui;Non;Non;Non;Oui;Non;Oui;Non;Oui;Non;Oui;Non;Oui
00196A;BOURG EN BRESSE MAGINOT BP;Bureau de poste;45 AVENUE MAGINOT; ; ;01000;BOURG EN BRESSE;FRANCE;46.2101;5.22731;Géocodé au numéro;3631;Oui;Oui;Non;Non;Non;Oui;Oui;Oui;Non;Oui;Oui;Oui;Non;Non
00197A;OYONNAX ANATOLE FRANCE BP;Bureau de poste;4 PLACE DU 11 NOVEMBRE 1943;;;01100;OYONNAX;FRANCE;46.258807;5.657093;Géocodé au numéro;3631;Oui;Oui;Non;Oui;Non;Oui;Non;Oui;Non;Oui;Non;Oui;Non;Non
00198A;BOURG LES VENNES BP;Bureau de poste;11 RUE LA FONTAINE;MAISON DE QUARTIER DES VENNES;;01000;BOURG EN BRESSE;FRANCE;46.1892;5.22825;Géocodé au numéro;3631;Non;Oui;Non;Non;Non;Non;Non;Oui;Non;Non;Oui;Oui;Oui;Oui
00199A;BELLEGARDE MUSINENS BP;Bureau de poste;10 R I ET FREDERIC JOLIOT CURIE;;;01200;BELLEGARDE SUR VALSERINE;FRANCE;46.119232;5.813645;Géocodé au numéro;3631;Non;Oui;Non;Non;Non;Non;Non;Oui;Non;Oui;Oui;Oui;Non;Oui
00201A;ST QUENTIN JEAN BART BP;Bureau de poste;106 RUE D ISLE;;;02100;ST QUENTIN;FRANCE;49.8429509;3.2934574;Géocodé au numéro;3631;Non;Oui;Non;Non;Non;Non;Oui;Non;Non;Non;Oui;Non;Non;Non
00203A;AMBLENY BP;Bureau de poste;2 RUE MAHIEUX;;;02290;AMBLENY;FRANCE;49.3792;3.18286;Géocodé au milieu de la rue;3631;Non;Non;Non;Non;Non;Non;Oui;Non;Non;Non;Non;Non;Non;Non
00204A;AMIFONTAINE AP;Agence postale commnunale;8 RUE DES MEGRETS; ; ;02190;AMIFONTAINE;FRANCE;49.4839;3.91872;Géocodé au milieu de la rue;0323226160;Non;Non;Non;Non;Non;Non;Oui;Non;Non;Non;Non;Non;Non;Non
00205A;ANIZY LE CHATEAU;Bureau de poste;8 RUE JEAN JAURES;;;02320;ANIZY LE CHATEAU;FRANCE;49.505403;3.451646;Géocodé au numéro;3631;Non;Oui;Non;Oui;Non;Non;Non;Non;Non;Non;Oui;Non;Non;Non
00206A;ANY MARTIN RIEUX AP;Relais poste commerçant;17 RUE DE BELLEVUE;CAFE RESTAURANT TABAC STATION SERVICE;;02500;ANY MARTIN RIEUX;FRANCE;49.881;4.22363;Géocodé au centre de la commune;0323580523;Non;Non;Non;Non;Non;Non;Oui;Non;Non;Non;Non;Non;Non;Non
00207A;ATHIES SOUS LAON BP;Bureau de poste;3 RUE DES ECOLES; ; ;02840;ATHIES SOUS LAON;FRANCE;49.5757;3.6799;Géocodé au numéro;3631;Non;Non;Non;Non;Non;Non;Oui;Oui;Non;Non;Non;Non;Non;Non
00208A;AUBENTON BP;Bureau de poste;11 RUE JEAN MERMOZ;;;02500;AUBENTON;FRANCE;49.8362;4.20346;Géocodé au milieu de la rue;3631;Non;Non;Non;Non;Non;Non;Oui;Non;Non;Non;Non;Non;Non;Non
00209A;AULNOIS SOUS LAON BP;Bureau de poste;9004 RUE DE CHAMBRY;;;02000;AULNOIS SOUS LAON;FRANCE;49.6121265;3.6073827;Géocodé au milieu de la rue;3631;Non;Non;Non;Non;Non;Non;Oui;Non;Non;Non;Non;Non;Non;Non
00210A;BARENTON BUGNY AP;Relais poste commerçant;13 RUE DU TILLE;Café de Mme Beaudeux;;02000;BARENTON BUGNY;FRANCE;49.6337;3.64966;Géocodé au milieu de la rue;0323238530;Non;Non;Non;Non;Non;Non;Oui;Non;Non;Non;Non;Non;Non;Non
00211A;BARISIS AP;Agence postale commnunale;13 RUE MOUTIER; ; ;02700;BARISIS;FRANCE;49.5804;3.33191;Géocodé au milieu de la rue;0323392679;Non;Non;Non;Non;Non;Non;Oui;Non;Non;Non;Non;Non;Non;Non
00214A;BEAUREVOIR BP;Bureau de poste;2 RUE DE LA POSTE;;;02110;BEAUREVOIR;FRANCE;49.9976;3.30758;Géocodé au numéro;3631;Non;Non;Non;Non;Non;Non;Oui;Oui;Non;Oui;Non;Oui;Non;Non
00215A;BEAURIEUX BP;Bureau de poste;2 RUE DU CLOITRE;;;02160;BEAURIEUX;FRANCE;49.3953;3.73954;Géocodé au milieu de la rue;3631;Non;Non;Non;Non;Non;Non;Oui;Non;Non;Non;Non;Non;Non;Non
00216A;BEAUTOR BP;Bureau de poste;15 RUE DE TERGNIER;;;02800;BEAUTOR;FRANCE;49.6593;3.3456;Géocodé au numéro;3631;Non;Oui;Non;Non;Non;Non;Oui;Non;Non;Non;Non;Non;Non;Non
00218A;BELLEU BP;Bureau de poste;3 RUE DU VAL;;;02200;BELLEU;FRANCE;49.3585;3.3384;Géocodé au numéro;3631;Non;Non;Non;Non;Non;Non;Oui;Non;Non;Non;Non;Non;Non;Non
00219A;BELLICOURT BP;Bureau de poste;4 RUE MORLET;;;02420;BELLICOURT;FRANCE;49.9620548;3.2316533;Géocodé au numéro;3631;Non;Non;Non;Non;Non;Non;Oui;Non;Non;Non;Non;Non;Non;Non
00221A;BERRY AU BAC AP;Relais poste commerçant;14 AVENUE DU GENERAL DE GAULLE;LE NATIONAL MME LHERMITE;;02190;BERRY AU BAC;FRANCE;49.3997;3.90102;Géocodé au milieu de la rue;0323799512;Non;Non;Non;Non;Non;Non;Oui;Non;Non;Non;Non;Non;Non;Non
00222A;BLERANCOURT BP;Bureau de poste;3 RUE ANNE MORGAN;;;02300;BLERANCOURT;FRANCE;49.5173;3.15153;Géocodé au numéro;3631;Non;Non;Non;Non;Non;Non;Oui;Non;Non;Non;Non;Non;Non;Non
00223A;BOHAIN EN VERMANDOIS;Bureau de poste;4 RUE FAGARD;;;02110;BOHAIN EN VERMANDOIS;FRANCE;49.987063;3.454556;Géocodé au numéro;3631;Non;Oui;Non;Non;Non;Oui;Oui;Non;Non;Non;Oui;Non;Non;Non
00224A;BOUE BP;Bureau de poste;9 RUE DES MARCHANDS;;;02450;BOUE;FRANCE;50.0127488;3.7003583;Géocodé au milieu de la rue;3631;Non;Non;Non;Non;Non;Non;Oui;Non;Non;Non;Non;Non;Non;Non
00225A;BOURG ET COMIN BP;Bureau de poste;6 RUE DE VAILLY;;;02160;BOURG ET COMIN;FRANCE;49.397;3.65641;Géocodé au centre de la commune;3631;Non;Non;Non;Non;Non;Non;Non;Non;Non;Non;Non;Non;Non;Non
00226A;LA BOUTEILLE AP;Agence postale commnunale;1 RUE DE VERVINS; ; ;02140;LA BOUTEILLE;FRANCE;49.8641;3.97134;Géocodé au centre de la commune;0323980370;Non;Non;Non;Non;Non;Non;Oui;Non;Non;Non;Non;Non;Non;Non
00227A;BRAINE;Bureau de poste;38 RUE DU MARTROY;;;02220;BRAINE;FRANCE;49.3412;3.53193;Géocodé au numéro;3631;Non;Oui;Non;Oui;Non;Non;Oui;Non;Non;Oui;Non;Non;Non;Non
00228A;BRANCOURT LE GRAND AP;Agence postale commnunale;2 RUE NEUVE; ; ;02110;BRANCOURT LE GRAND;FRANCE;49.9765;3.38378;Géocodé au centre de la commune;0323621924;Non;Non;Non;Non;Non;Non;Oui;Non;Non;Non;Non;Non;Non;Non
00229A;BRUNEHAMEL BP;Bureau de poste;4 PLACE DE MAI 1940;;;02360;BRUNEHAMEL;FRANCE;49.77;4.17974;Géocodé au milieu de la rue;3631;Non;Non;Non;Non;Non;Non;Oui;Non;Non;Non;Non;Non;Non;Non
00230A;BRUYERES ET MONTBERAULT BP;Bureau de poste;9001 PLACE DU GENERAL DE GAULLE;;;02860;BRUYERES ET MONTBERAULT;FRANCE;49.5237872;3.6641113;Géocodé au milieu de la rue;3631;Non;Oui;Non;Non;Non;Non;Oui;Oui;Non;Oui;Oui;Oui;Non;Non
00231A;BUCY LE LONG BP;Bureau de poste;23 RUE DU GENERAL DE GAULLE;;;02880;BUCY LE LONG;FRANCE;49.3898;3.3973;Géocodé au numéro;3631;Non;Non;Non;Non;Non;Non;Oui;Non;Non;Non;Non;Non;Non;Non
00232A;BUCY LES PIERREPONT AP;Agence postale commnunale;4 RUE DU CALVAIRE; ; ;02350;BUCY LES PIERREPONT;FRANCE;49.6461;3.90214;Géocodé au milieu de la rue;0323256532;Non;Non;Non;Non;Non;Non;Oui;Non;Non;Non;Non;Non;Non;Non
00233A;BUIRONFOSSE BP;Bureau de poste;43 ROUTE NATIONALE; ; ;02620;BUIRONFOSSE;FRANCE;49.9633;3.83355;Géocodé au milieu de la rue;3631;Non;Non;Non;Non;Non;Non;Oui;Non;Non;Non;Non;Non;Non;Non
00234A;LA CAPELLE BP;Bureau de poste;69 RUE DU GENERAL DE GAULLE; ; ;02260;LA CAPELLE;FRANCE;49.9752;3.91646;Géocodé au numéro;3631;Non;Oui;Non;Non;Non;Non;Oui;Non;Non;Non;Non;Non;Non;Non
00235A;LE CATELET  AP;Agence postale commnunale;48 BIS RUE DU GENERAL AUGEREAU;AGENCE POSTALE COMMUNALE DE LE CATELET; ;02420;LE CATELET;FRANCE;50.0026;3.24566;Géocodé au numéro;0323662173;Non;Non;Non;Non;Non;Non;Oui;Non;Non;Non;Non;Non;Non;Non
00236A;CHARLY BP;Bureau de poste;128 RUE EMILE MORLOT; ; ;02310;CHARLY SUR MARNE;FRANCE;48.9767;3.28373;Géocodé au milieu de la rue;3631;Non;Non;Non;Oui;Non;Non;Oui;Non;Non;Non;Non;Non;Non;Non
00237A;CHARMES BP;Bureau de poste;10 RUE ARISTIDE BRIAND;;;02800;CHARMES;FRANCE;49.6535291;3.3790040;Géocodé au numéro;3631;Non;Non;Non;Non;Non;Non;Oui;Non;Non;Non;Non;Non;Non;Non
00238A;CHATEAU THIERRY;Bureau de poste;1 AVENUE JULES LEFEBVRE;;;02400;CHATEAU THIERRY;FRANCE;49.0439;3.39907;Géocodé au numéro;3631;Oui;Oui;Non;Oui;Non;Oui;Oui;Oui;Non;Oui;Oui;Oui;Non;Non
00239A;CHAUNY;Bureau de poste;28 BOULEVARD GAMBETTA;;;02300;CHAUNY;FRANCE;49.6142976;3.2210622;Géocodé au numéro;3631;Oui;Oui;Non;Oui;Non;Oui;Oui;Oui;Non;Non;Oui;Oui;Non;Non
00240A;CHAVIGNON AP;Agence postale commnunale;1 RUE LEON PAQUIN; ; ;02000;CHAVIGNON;FRANCE;49.4796;3.52058;Géocodé au numéro;0323216098;Non;Non;Non;Non;Non;Non;Oui;Non;Non;Non;Non;Non;Non;Non
00241A;CHEZY SUR MARNE AP;Agence postale commnunale;PLACE DU LIEUTENANT LEHOUCQ; ; ;02570;CHEZY SUR MARNE;FRANCE;48.9895;3.36765;Géocodé au centre de la commune;3631;Non;Non;Non;Non;Non;Non;Oui;Non;Non;Non;Non;Non;Non;Non
00242A;CIRY SALSOGNE AP;Agence postale commnunale;5 A RUE DU PRESBYTERE; ; ;02220;CIRY SALSOGNE;FRANCE;49.3656;3.46278;Géocodé au milieu de la rue;0323724063;Non;Non;Non;Non;Non;Non;Oui;Non;Non;Non;Non;Non;Non;Non
00243A;CLAIRFONTAINE AP;Agence postale commnunale;17  RUE DU PETIT VERSAILLES; ; ;02260;CLAIRFONTAINE;FRANCE;49.9822;3.98912;Géocodé au milieu de la rue;0323972735;Non;Non;Non;Non;Non;Non;Oui;Non;Non;Non;Non;Non;Non;Non
00245A;COINCY BP;Bureau de poste;14 GRANDE RUE;;;02210;COINCY;FRANCE;49.1615;3.42272;Géocodé au centre de la commune;3631;Non;Non;Non;Non;Non;Non;Oui;Non;Non;Non;Non;Non;Non;Non
00246A;CONDE EN BRIE BP;Bureau de poste;5 PLACE DE L EGLISE;;;02330;CONDE EN BRIE;FRANCE;49.0047;3.56018;Géocodé au milieu de la rue;3631;Non;Non;Non;Non;Non;Non;Oui;Non;Non;Non;Non;Non;Non;Non
00247A;CORBENY AP;Agence postale commnunale;7 RUE PIERRE CURTIL; ; ;02820;CORBENY;FRANCE;49.4619;3.8215;Géocodé au milieu de la rue;0326687505;Non;Non;Non;Non;Non;Non;Oui;Non;Non;Non;Non;Non;Non;Non
00248A;COUCY LE CHATEAU AUFFRIQUE BP;Bureau de poste;2 RUE DE LA POSTE; ; ;02380;COUCY LE CHATEAU AUFFRIQUE;FRANCE;49.520946;3.32389;Géocodé au numéro;3631;Non;Oui;Non;Non;Non;Non;Oui;Non;Non;Non;Non;Non;Non;Non
00249A;COUCY LES EPPES AP;Agence postale commnunale;51 RUE DE LA MAIRIE; ; ;02840;COUCY LES EPPES;FRANCE;49.5521;3.76833;Géocodé au centre de la commune;0323242114;Non;Non;Non;Non;Non;Non;Oui;Non;Non;Non;Non;Non;Non;Non
00250A;COULONGES COHAN AP;Agence postale commnunale;RUE DE LA SABOTERIE; ; ;02130;COULONGES COHAN;FRANCE;49.2007;3.63598;Géocodé au centre de la commune;0323694350;Non;Non;Non;Non;Non;Non;Oui;Non;Non;Non;Non;Non;Non;Non
00251A;COUVRON ET AUMENCOURT APC AP;Agence postale commnunale;1 PLACE DE L EGLISE;AGENCE POSTALE COMMUNALE; ;02270;COUVRON ET AUMENCOURT;FRANCE;49.6445;3.51693;Géocodé au numéro;0323209397;Non;Non;Non;Oui;Non;Non;Oui;Non;Non;Non;Non;Non;Non;Non
00252A;CRECY SUR SERRE;Bureau de poste;1 RUE DES TELLIERS; ; ;02270;CRECY SUR SERRE;FRANCE;49.6956;3.62403;Géocodé au numéro;3631;Non;Oui;Non;Non;Non;Non;Oui;Non;Non;Non;Oui;Oui;Non;Non
00252B;BRETTEVILLE EN SAIRE  AP;Relais poste commerçant;12 RUE DU VIEUX CHATEAU;LE QUEEN MARIE VILLAGE DE LA RUE;;50110;BRETTEVILLE;FRANCE;49.6557;-1.52221;Géocodé au numéro;0233225310;Non;Non;Non;Non;Non;Non;Non;Non;Non;Non;Non;Non;Non;Non
00253A;CREPY BP;Bureau de poste;30 RUE MALEZIEUX BRIQUET; ; ;02870;CREPY;FRANCE;49.6057;3.513;Géocodé au milieu de la rue;3631;Non;Oui;Non;Oui;Non;Non;Oui;Non;Non;Non;Oui;Non;Non;Non
00253B;NEGREVILLE AP;Relais poste commerçant;;GARAGE DU VIEUX CHENE;;50260;NEGREVILLE;FRANCE;49.4923;-1.5474;Géocodé au numéro;0233400590;Non;Non;Non;Non;Non;Non;Non;Non;Non;Non;Non;Non;Non;Non
00254A;CREZANCY BP;Bureau de poste;2 RUE DU CALVAIRE;;;02650;CREZANCY;FRANCE;49.0468;3.51112;Géocodé au centre de la commune;3631;Non;Non;Non;Non;Non;Non;Oui;Non;Non;Non;Non;Non;Non;Non
00254B;SURTAINVILLE AP;Relais poste commerçant;LE BOURG;BOULANGERIE;;50270;SURTAINVILLE;FRANCE;49.46;-1.81409;Géocodé au numéro;0233043052;Non;Non;Non;Non;Non;Non;Non;Non;Non;Non;Non;Non;Non;Non
00255A;CROUY BP;Bureau de poste;1 PLACE ADRIEN LEMOINE; ; ;02880;CROUY;FRANCE;49.4028;3.36039;Géocodé au numéro;3631;Non;Oui;Non;Non;Non;Non;Oui;Oui;Non;Oui;Non;Oui;Non;Non
00256A;DERCY BP;Bureau de poste;9 RUE LOUIS FRAIX;;;02270;DERCY;FRANCE;49.7057;3.68571;Géocodé au milieu de la rue;3631;Non;Non;Non;Non;Non;Non;Oui;Non;Non;Non;Non;Non;Non;Non
00257A;DIZY LE GROS AP;Agence postale commnunale;1 RUE DE CLERMONT; ; ;02340;DIZY LE GROS;FRANCE;49.6315;4.01877;Géocodé au milieu de la rue;0323212316;Non;Non;Non;Non;Non;Non;Oui;Non;Non;Non;Non;Non;Non;Non
00258A;ESQUEHERIES AP;Agence postale commnunale;2  PLACE DE LA MAIRIE;;;02170;ESQUEHERIES;FRANCE;49.9834;3.74767;Géocodé au milieu de la rue;0323970319;Non;Non;Non;Non;Non;Non;Oui;Non;Non;Non;Non;Non;Non;Non
00259A;ESSIGNY LE GRAND AP;Agence postale commnunale;2 RUE SAINT SAULVE; ; ;02690;ESSIGNY LE GRAND;FRANCE;49.7767;3.27711;Géocodé au centre de la commune;0323633610;Non;Non;Non;Non;Non;Non;Oui;Non;Non;Non;Non;Non;Non;Non
00260A;ESSOMES SUR MARNE BP;Bureau de poste;4 AVENUE DU GENERAL DE GAULLE;;;02400;ESSOMES SUR MARNE;FRANCE;49.0297;3.37505;Géocodé au numéro;3631;Non;Oui;Non;Non;Non;Non;Oui;Non;Non;Non;Oui;Non;Non;Non
00261A;ESTREES AP;Agence postale commnunale;1 RUE DE L ABBAYE; ; ;02420;ESTREES;FRANCE;49.9681;3.28434;Géocodé au milieu de la rue;0323634721;Non;Non;Non;Non;Non;Non;Oui;Non;Non;Non;Non;Non;Non;Non
00262A;ETAMPES SUR MARNE AP;Agence postale commnunale;1 RUE PIERRE SEMARD; ; ;02400;ETAMPES SUR MARNE;FRANCE;49.0335;3.41903;Géocodé au numéro;0323830600;Non;Non;Non;Non;Non;Non;Non;Non;Non;Non;Non;Non;Non;Non
00263A;ETREAUPONT BP;Bureau de poste;11 RUE DE LA LIBERATION;;;02580;ETREAUPONT;FRANCE;49.9020854;3.9171936;Géocodé au milieu de la rue;3631;Non;Non;Non;Non;Non;Non;Oui;Non;Non;Non;Non;Non;Non;Non
00264A;ETREILLERS BP;Bureau de poste;36 AVENUE DU GENERAL DE GAULLE; ; ;02590;ETREILLERS;FRANCE;49.829159;3.162142;Géocodé au numéro;3631;Non;Oui;Non;Non;Non;Non;Oui;Non;Non;Non;Oui;Non;Non;Non
00265A;ETREUX BP;Bureau de poste;249 RUE DE L ECLAIREUR DE NICE;;;02510;ETREUX;FRANCE;49.993267;3.655701;Géocodé au numéro;3631;Non;Non;Non;Non;Non;Non;Oui;Non;Non;Non;Non;Non;Non;Non
00266A;TERGNIER FARGNIERS BP;Bureau de poste;1 PLACE CARNEGIE;;;02700;TERGNIER;FRANCE;49.6582397;3.3141097;Géocodé au numéro;3631;Non;Non;Non;Non;Non;Non;Oui;Non;Non;Non;Non;Non;Non;Oui
00267A;LA FERE BP;Bureau de poste;36 PLACE PAUL DOUMER;;;02800;LA FERE;FRANCE;49.6627172;3.3648824;Géocodé au numéro;3631;Non;Oui;Non;Oui;Non;Non;Oui;Non;Non;Non;Non;Non;Non;Non
00268A;FERE EN TARDENOIS;Bureau de poste;9 PLACE ARISTIDE BRIAND;;;02130;FERE EN TARDENOIS;FRANCE;49.2021;3.51383;Géocodé au numéro;3631;Non;Oui;Non;Non;Non;Oui;Oui;Non;Non;Non;Oui;Non;Non;Non
00269A;LA FERTE CHEVRESIS AP;Agence postale commnunale;1 RUE DU CHATEAU; ; ;02270;LA FERTE CHEVRESIS;FRANCE;49.7357;3.55899;Géocodé au milieu de la rue;0323201159;Non;Non;Non;Non;Non;Non;Oui;Non;Non;Non;Non;Non;Non;Non
00270A;LA FERTE MILON BP;Bureau de poste;34 RUE DE LA CHAUSSEE;;;02460;LA FERTE MILON;FRANCE;49.1791661;3.1247179;Géocodé au milieu d un îlot;3631;Non;Non;Non;Non;Non;Non;Non;Non;Non;Non;Non;Non;Non;Non
00271A;FESMY LE SART AP;Agence postale commnunale;5 RUE DE L EGLISE; ; ;02450;FESMY LE SART;FRANCE;50.0429;3.6799;Géocodé au centre de la commune;0323600942;Non;Non;Non;Non;Non;Non;Non;Non;Non;Non;Non;Non;Non;Non
00272A;FLAVY LE MARTEL BP;Bureau de poste;16 RUE ROOSEVELT;;;02520;FLAVY LE MARTEL;FRANCE;49.714393;3.192676;Géocodé au numéro;3631;Non;Non;Non;Non;Non;Non;Oui;Non;Non;Non;Non;Non;Non;Non
00273A;FOLEMBRAY BP;Bureau de poste;2 RUE LOUIS LAVERE;;;02670;FOLEMBRAY;FRANCE;49.5435;3.29007;Géocodé au milieu de la rue;3631;Non;Non;Non;Non;Non;Non;Oui;Oui;Non;Oui;Non;Oui;Non;Non
00274A;FRESNOY LE GRAND BP;Bureau de poste;3 PLACE DU GENERAL DE GAULLE; ; ;02230;FRESNOY LE GRAND;FRANCE;49.9472;3.41548;Géocodé au milieu de la rue;3631;Non;Oui;Non;Non;Non;Non;Oui;Non;Non;Non;Non;Non;Non;Non
00276A;GANDELU AP;Agence postale commnunale;5  RUE DU JEU D ARC; ; ;02810;GANDELU;FRANCE;49.0947;3.18268;Géocodé au centre de la commune;0323714468;Non;Non;Non;Non;Non;Non;Oui;Non;Non;Non;Non;Non;Non;Non
00277A;GAUCHY;Bureau de poste;9001 PLACE JACQUES DUCLOS;;;02430;GAUCHY;FRANCE;49.8299205;3.2810247;Géocodé au milieu d un îlot;3631;Non;Oui;Oui;Oui;Non;Non;Oui;Oui;Non;Oui;Non;Oui;Non;Oui
00278A;GIZY AP;Agence postale commnunale;1 RUE DES CASERNES; ; ;02350;GIZY;FRANCE;49.5998;3.77346;Géocodé au milieu de la rue;0323222050;Non;Non;Non;Non;Non;Non;Oui;Non;Non;Non;Non;Non;Non;Non
00279A;GROUGIS AP;Agence postale commnunale;PLACE DE LA MAIRIE; ; ;02110;GROUGIS;FRANCE;49.9425;3.53261;Géocodé au milieu de la rue;0323660154;Non;Non;Non;Non;Non;Non;Oui;Non;Non;Non;Non;Non;Non;Non
00280A;GRUGIES BP;Bureau de poste;64 RUE DE PICARDIE;;;02680;GRUGIES;FRANCE;49.813052;3.264538;Géocodé au numéro;3631;Non;Non;Non;Non;Non;Non;Oui;Non;Non;Non;Non;Non;Non;Non
00281A;GUIGNICOURT;Bureau de poste;3 AVENUE DU GENERAL DE GAULLE;;;02190;GUIGNICOURT;FRANCE;49.4348;3.96306;Géocodé au numéro;3631;Non;Oui;Non;Non;Non;Non;Oui;Non;Non;Non;Non;Non;Non;Oui
00282A;GUISE;Bureau de poste;35 PLACE D ARMES;;;02120;GUISE;FRANCE;49.899873;3.627269;Géocodé au numéro;3631;Non;Oui;Non;Non;Non;Oui;Oui;Oui;Non;Oui;Oui;Oui;Non;Non
00283A;HARGICOURT AP;Agence postale commnunale;RUE CARON; ; ;02420;HARGICOURT;FRANCE;49.962;3.17929;Géocodé au centre de la commune;0323095844;Non;Non;Non;Non;Non;Non;Oui;Non;Non;Non;Non;Non;Non;Non
00284A;HARTENNES ET TAUX AP;Relais poste commerçant;31 GRANDE RUE; ; ;02210;HARTENNES ET TAUX;FRANCE;49.2703;3.35291;Géocodé au numéro;3631;Non;Non;Non;Non;Non;Non;Oui;Non;Non;Non;Non;Non;Non;Non
00285A;LEHAUCOURT AP;Agence postale commnunale;20 RUE JEAN JAURES; ; ;02420;LEHAUCOURT;FRANCE;49.916;3.27606;Géocodé au numéro;0323647844;Non;Non;Non;Non;Non;Non;Oui;Non;Non;Non;Non;Non;Non;Non
00286A;HIRSON;Bureau de poste;20 RUE PASTEUR;;;02500;HIRSON;FRANCE;49.925;4.07961;Géocodé au numéro;3631;Oui;Oui;Non;Oui;Non;Oui;Oui;Non;Non;Non;Non;Non;Non;Non
00287A;HOLNON BP;Bureau de poste;11 PLACE DE VOUVRAY;;;02760;HOLNON;FRANCE;49.8605877;3.2143158;Géocodé au numéro;3631;Non;Non;Non;Non;Non;Non;Oui;Non;Non;Non;Non;Non;Non;Non
00288A;HOMBLIERES AP;Relais poste commerçant;2 RUE ADRIEN LANGLET;RELAIS POSTE COMMERCANT DE HOMBLIERES; ;02720;HOMBLIERES;FRANCE;49.8488;3.36411;Géocodé au numéro;0323088396;Non;Non;Non;Non;Non;Non;Oui;Non;Non;Non;Non;Non;Non;Non
00289A;JAULGONNE BP;Bureau de poste;17 RUE DES FORGES; ; ;02850;JAULGONNE;FRANCE;49.0883;3.53534;Géocodé au numéro;3631;Non;Non;Non;Non;Non;Non;Oui;Non;Non;Non;Non;Non;Non;Non
00290A;JUSSY AP;Agence postale commnunale;9 PLACE DE LA MAIRIE;AGENCE POSTALE COMMUNALE; ;02480;JUSSY;FRANCE;49.7236;3.23346;Géocodé au milieu de la rue;0323632377;Non;Non;Non;Non;Non;Non;Oui;Non;Non;Non;Non;Non;Non;Non
00291A;LANDOUZY LA VILLE AP;Agence postale commnunale;17 PLACE DU VILLAGE; ; ;02140;LANDOUZY LA VILLE;FRANCE;49.8623;4.04883;Géocodé au milieu de la rue;0323984329;Non;Non;Non;Non;Non;Non;Oui;Non;Non;Non;Non;Non;Non;Non
00292A;LAON R P;Bureau de poste;9004 PLACE DES DROITS DE L HOMME;;;02000;LAON;FRANCE;49.5705023;3.6239925;Géocodé au milieu d un îlot;3631;Oui;Oui;Non;Oui;Non;Oui;Oui;Oui;Oui;Oui;Oui;Oui;Non;Non
00293A;LEME AP;Agence postale commnunale;RUE DE LA NATION; ; ;02140;LEME;FRANCE;49.8398;3.76488;Géocodé au milieu de la rue;0323982209;Non;Non;Non;Non;Non;Non;Oui;Non;Non;Non;Non;Non;Non;Non
00294A;LESDINS AP;Relais poste commerçant;2 RUE DE PICARDIE;BAR TABAC LE CRISTAL; ;02100;LESDINS;FRANCE;49.8966;3.32698;Géocodé au numéro;0323085280;Non;Non;Non;Non;Non;Non;Oui;Non;Non;Non;Non;Non;Non;Non
00295A;LESQUIELLES SAINT GERMAIN AP;Relais poste commerçant;1 PLACE DU 8 MAI 1945;CAFE TABAC LE SAINT GERMAIN;;02120;LESQUIELLES ST GERMAIN;FRANCE;49.9315;3.61886;Géocodé au centre de la commune;0323604585;Non;Non;Non;Non;Non;Non;Oui;Non;Non;Non;Non;Non;Non;Non
00296A;LEVERGIES AP;Agence postale commnunale;2 RUE NEUVE; ; ;02420;LEVERGIES;FRANCE;49.9268;3.31301;Géocodé au numéro;0323634159;Non;Non;Non;Non;Non;Non;Oui;Non;Non;Non;Non;Non;Non;Non
00297A;LIESSE NOTRE DAME BP;Bureau de poste;12 RUE DU GENERAL DE GAULLE;;;02350;LIESSE NOTRE DAME;FRANCE;49.6108;3.80172;Géocodé au numéro;3631;Non;Oui;Non;Non;Non;Non;Oui;Non;Non;Non;Oui;Non;Non;Non
00298A;LA MALMAISON AP;Agence postale commnunale;1  RUE D EN HAUT; ; ;02190;LA MALMAISON;FRANCE;49.5152;3.98033;Géocodé au centre de la commune;0323226490;Non;Non;Non;Non;Non;Non;Oui;Non;Non;Non;Non;Non;Non;Non
00299A;MARLE BP;Bureau de poste;9 RUE LALOUETTE;;;02250;MARLE;FRANCE;49.7374;3.76766;Géocodé au centre de la commune;3631;Non;Oui;Non;Non;Non;Non;Oui;Non;Non;Non;Non;Non;Non;Non
00300A;MARLY GOMONT BP;Bureau de poste;27 RUE DE LA POTERIE;;;02120;MARLY GOMONT;FRANCE;49.9021;3.79164;Géocodé au centre de la commune;3631;Non;Non;Non;Non;Non;Non;Oui;Non;Non;Non;Non;Non;Non;Non
00301A;MARTIGNY AP;Relais poste commerçant;17 RUE DE LEUZE;CHEZ ALAIN M VANDMEEN ALAIN;;02500;MARTIGNY;FRANCE;49.8586;4.13771;Géocodé au centre de la commune;0323585273;Non;Non;Non;Non;Non;Non;Oui;Non;Non;Non;Non;Non;Non;Non
00302A;MENNEVRET AP;Agence postale commnunale;3 B PLACE DU GENERAL DE GAULLE; ; ;02630;MENNEVRET;FRANCE;49.9839;3.55534;Géocodé au milieu de la rue;0323608078;Non;Non;Non;Non;Non;Non;Oui;Non;Non;Non;Non;Non;Non;Non
00303A;MERCIN ET VAUX APC AP;Agence postale commnunale;3 BIS PLACE DU GENERAL DE GAULLE; ; ;02200;MERCIN ET VAUX;FRANCE;;;Non renseigné;0323736408;Non;Non;Non;Non;Non;Non;Oui;Non;Non;Non;Non;Non;Non;Non
00304A;MEZIERES SUR OISE AP;Agence postale commnunale;11 RUE DE L EGLISE; ; ;02240;MEZIERES SUR OISE;FRANCE;49.7819;3.3997;Géocodé au milieu de la rue;0323667254;Non;Non;Non;Non;Non;Non;Oui;Non;Non;Non;Non;Non;Non;Non
00305A;MONCEAULE NEUF AP;Agence postale commnunale;39  RUE DE VERDUN; ; ;02270;MONCEAU LE NEUF ET FAUCOUZY;FRANCE;49.7687;3.61585;Géocodé au milieu de la rue;0323230731;Non;Non;Non;Non;Non;Non;Oui;Non;Non;Non;Non;Non;Non;Non
00306A;MONDREPUIS AP;Agence postale commnunale;23 AVENUE DE VERDUN; ; ;02500;MONDREPUIS;FRANCE;49.9648;4.05425;Géocodé au numéro;0323581780;Non;Non;Non;Non;Non;Non;Oui;Non;Non;Non;Non;Non;Non;Non
00307A;MONS EN LAONNOIS AP;Agence postale commnunale;1 PLACE D AIX EN PROVENCE; ; ;02000;MONS EN LAONNOIS;FRANCE;49.5378;3.55293;Géocodé au milieu de la rue;0323241293;Non;Non;Non;Non;Non;Non;Oui;Non;Non;Non;Non;Non;Non;Non
00308A;MONTAIGU AP;Relais poste commerçant;8 RUE DU BERCEAU;MAGASIN DE PIECES DETACHEES EPICERIE;;02820;MONTAIGU;FRANCE;49.5343;3.82871;Géocodé au milieu de la rue;0323224620;Non;Non;Non;Non;Non;Non;Oui;Non;Non;Non;Non;Non;Non;Non
00309A;MONTBREHAIN AP;Agence postale commnunale;8 RUE PREMONT;;;02110;MONTBREHAIN;FRANCE;49.9674;3.34876;Géocodé au centre de la commune;0323634116;Non;Non;Non;Non;Non;Non;Oui;Non;Non;Non;Non;Non;Non;Non
00310A;MONTCORNET BP;Bureau de poste;13 RUE ARISTIDE BRIAND;;;02340;MONTCORNET;FRANCE;49.6967;4.01906;Géocodé au milieu de la rue;3631;Non;Non;Non;Non;Non;Non;Oui;Oui;Non;Oui;Non;Oui;Non;Non
00311A;MONTESCOURT LIZEROLLES BP;Bureau de poste;13 RUE DE MISSEMBOEUF;;;02440;MONTESCOURT LIZEROLLES;FRANCE;49.7359907;3.2504281;Géocodé au numéro;3631;Non;Non;Non;Non;Non;Non;Oui;Non;Non;Non;Non;Non;Non;Non
00312A;MONTIGNY EN ARROUAISE AP;Agence postale commnunale;8 GRANDE RUE; ; ;02110;MONTIGNY EN ARROUAISE;FRANCE;49.9074;3.47916;Géocodé au milieu de la rue;0323079382;Non;Non;Non;Non;Non;Non;Oui;Non;Non;Non;Non;Non;Non;Non
00313A;MONT NOTRE DAME AP;Agence postale commnunale;23 RUE DE LA CHESNEE; ; ;02220;MONT NOTRE DAME;FRANCE;49.2922;3.57943;Géocodé au milieu de la rue;0323548113;Non;Non;Non;Non;Non;Non;Oui;Non;Non;Non;Non;Non;Non;Non
00314A;MONTREUIL AUX LIONS AP;Agence postale commnunale;55  AVENUE DE PARIS; ; ;02310;MONTREUIL AUX LIONS;FRANCE;49.0207;3.1884;Géocodé au numéro;0323705982;Non;Non;Non;Non;Non;Non;Oui;Non;Non;Non;Non;Non;Non;Non
00315A;MORSAIN AP;Relais poste commerçant;16 RUE SAINT MARTIN;AU SOLEIL D OR MME MAURY JOCELYNE;;02290;MORSAIN;FRANCE;49.4529;3.18283;Géocodé au milieu de la rue;0323557061;Non;Non;Non;Non;Non;Non;Oui;Non;Non;Non;Non;Non;Non;Non
00316A;MOY DE L AISNE BP;Bureau de poste;12 RUE BERNARD TESTART;;;02610;MOY DE L AISNE;FRANCE;49.7507;3.36529;Géocodé au numéro;3631;Non;Non;Non;Non;Non;Non;Oui;Non;Non;Non;Non;Non;Non;Non
00317A;NAUROY AP;Agence postale commnunale;19 RUE GABRIEL PERI; ; ;02420;NAUROY;FRANCE;49.9535;3.25285;Géocodé au milieu de la rue;0323095534;Non;Non;Non;Non;Non;Non;Oui;Non;Non;Non;Non;Non;Non;Non
00318A;NEUFCHATEL SUR AISNE AP;Agence postale commnunale;1 PLACE DE L EGLISE; ; ;02190;NEUFCHATEL SUR AISNE;FRANCE;49.4315;4.03386;Géocodé au centre de la commune;0323238055;Non;Non;Non;Non;Non;Non;Non;Non;Non;Non;Non;Non;Non;Non
00319A;NEUILLY ST FRONT BP;Bureau de poste;7 RUE DU CHATEAU;;;02470;NEUILLY ST FRONT;FRANCE;49.1691;3.25845;Géocodé au milieu de la rue;3631;Non;Non;Non;Oui;Non;Non;Oui;Oui;Non;Oui;Non;Oui;Non;Non
00320A;NEUVE MAISON AP;Agence postale commnunale;49 RUE DE VERDUN; ; ;02500;NEUVE MAISON;FRANCE;49.9301;4.0333;Géocodé au numéro;0323584523;Non;Non;Non;Non;Non;Non;Oui;Non;Non;Non;Non;Non;Non;Non
00321A;NOGENT L ARTAUD BP;Bureau de poste;34 RUE ERNEST VALLEE;;;02310;NOGENT L ARTAUD;FRANCE;48.9651432;3.3190773;Géocodé au numéro;3631;Non;Non;Non;Non;Non;Non;Oui;Non;Non;Non;Non;Non;Non;Non
00322A;LE NOUVION EN THIERACHE;Bureau de poste;1 RUE JEAN VIMONT VICARY;;;02170;LE NOUVION EN THIERACHE;FRANCE;50.017;3.7818;Géocodé au numéro;3631;Non;Oui;Non;Oui;Non;Non;Oui;Non;Non;Non;Non;Non;Non;Non
00323A;NOUVION ET CATILLON AP;Agence postale commnunale;3 RUE DE LA POSTE; ; ;02270;NOUVION ET CATILLON;FRANCE;49.7027;3.48021;Géocodé au milieu de la rue;0323565479;Non;Non;Non;Non;Non;Non;Oui;Non;Non;Non;Non;Non;Non;Non
00324A;OISY AP;Agence postale commnunale;3 RUE DU MIDI; ; ;02450;OISY;FRANCE;50.0219;3.66919;Géocodé au milieu de la rue;0323600187;Non;Non;Non;Non;Non;Non;Non;Non;Non;Non;Non;Non;Non;Non
00325A;ORIGNY EN THIERACHE BP;Bureau de poste;2 RUE DU STADE;;;02550;ORIGNY EN THIERACHE;FRANCE;49.8889;4.01906;Géocodé au centre de la commune;3631;Non;Non;Non;Non;Non;Non;Oui;Non;Non;Non;Non;Non;Non;Non
00326A;ORIGNY STE BENOITE BP;Bureau de poste;48 RUE PASTEUR;;;02390;ORIGNY STE BENOITE;FRANCE;49.839982;3.488449;Géocodé au numéro;3631;Non;Non;Non;Non;Non;Non;Oui;Non;Non;Non;Non;Non;Non;Non
00327A;OULCHY LE CHATEAU BP;Bureau de poste;19 RUE QUINQUET DE MONJOUR;;;02210;OULCHY LE CHATEAU;FRANCE;49.2036;3.36749;Géocodé au milieu de la rue;3631;Non;Non;Non;Non;Non;Non;Oui;Oui;Non;Oui;Non;Oui;Non;Non
00328A;PIERREPONT BP;Bureau de poste;8 RUE PORCOT;;;02350;PIERREPONT;FRANCE;49.653;3.79452;Géocodé au milieu de la rue;3631;Non;Non;Non;Non;Non;Non;Oui;Non;Non;Non;Non;Non;Non;Non
00329A;PINON BP;Bureau de poste;5 RUE DU 7E BCA;;;02320;PINON;FRANCE;49.489645;3.447317;Géocodé au numéro;3631;Non;Non;Non;Oui;Non;Non;Oui;Non;Non;Non;Non;Non;Non;Non
00330A;PLOMION AP;Agence postale commnunale; ;PLACE ALFRED LANDAIS; ;02140;PLOMION;FRANCE;49.8085;4.01816;Géocodé au centre de la commune;0323988327;Non;Non;Non;Non;Non;Non;Oui;Non;Non;Non;Non;Non;Non;Non
00331A;POMMIERS AP;Agence postale commnunale;16 RUE JEAN CAUDRON; ; ;02200;POMMIERS;FRANCE;49.3903;3.27528;Géocodé au milieu de la rue;0323730386;Non;Non;Non;Non;Non;Non;Oui;Non;Non;Non;Non;Non;Non;Non
00332A;POUILLY SUR SERRE AP;Agence postale commnunale;27 GRAND RUE; ; ;02270;POUILLY SUR SERRE;FRANCE;49.6792;3.58741;Géocodé au milieu de la rue;0323807179;Non;Non;Non;Non;Non;Non;Oui;Non;Non;Non;Non;Non;Non;Non
00333A;PREMONT AP;Relais poste commerçant;3 RUE LARGILLERE;GARAGE DEGREVE MERCIER; ;02110;PREMONT;FRANCE;50.0112;3.39378;Géocodé au numéro;0323094226;Non;Non;Non;Non;Non;Non;Oui;Non;Non;Non;Non;Non;Non;Non
00334A;PREMONTRE AP;Agence postale commnunale; ;5 AVENUE DE L HOPITAL; ;02320;PREMONTRE;FRANCE;49.5402;3.41335;Géocodé au centre de la commune;0323805206;Non;Non;Non;Non;Non;Non;Non;Non;Non;Non;Non;Non;Non;Non
00335A;PROISY AP;Agence postale commnunale; ; ; ;02120;PROISY;FRANCE;49.8988;3.738;Géocodé au centre de la commune;0323602099;Non;Non;Non;Non;Non;Non;Oui;Non;Non;Non;Non;Non;Non;Non
00336A;PUISIEUX ET CLANLIEU AP;Relais poste commerçant;11 RUE MARLE;LE PENALTY CAFE TABAC EPICERIE; ;02120;PUISIEUX ET CLANLIEU;FRANCE;49.8509;3.67885;Géocodé au milieu de la rue;0323609152;Non;Non;Non;Non;Non;Non;Oui;Non;Non;Non;Non;Non;Non;Non
00337A;QUESSY CENTRE BP;Bureau de poste;40 RUE PASTEUR; ;QUESSY;02700;TERGNIER;FRANCE;;;Non renseigné;3631;Non;Non;Non;Non;Non;Non;Oui;Non;Non;Non;Non;Non;Non;Non
00338A;RIBEMONT BP;Bureau de poste;37 RUE CONDORCET;;;02240;RIBEMONT;FRANCE;49.7961142;3.4597895;Géocodé au milieu d un îlot;3631;Non;Oui;Non;Oui;Non;Non;Oui;Non;Non;Non;Oui;Non;Non;Non
00339A;ROUCY AP;Agence postale commnunale; ;9 PLACE DE L EGLISE; ;02160;ROUCY;FRANCE;49.3718;3.81299;Géocodé au centre de la commune;0323207809;Non;Non;Non;Non;Non;Non;Oui;Non;Non;Non;Non;Non;Non;Non
00341A;ROZOY SUR SERRE BP;Bureau de poste;140 PLACE DE L EUROPE; ; ;02360;ROZOY SUR SERRE;FRANCE;49.7097;4.12872;Géocodé au milieu de la rue;3631;Non;Non;Non;Non;Non;Non;Oui;Non;Non;Non;Non;Non;Non;Non
00342A;SAINS RICHAUMONT BP;Bureau de poste;11 PLACE DES PRELETS;;;02120;SAINS RICHAUMONT;FRANCE;49.8245485;3.7117579;Géocodé au numéro;3631;Non;Non;Non;Non;Non;Non;Oui;Non;Non;Non;Non;Non;Non;Non
00343A;SAINT ERME OUTRE ET RAMECOURT BP;Bureau de poste;1 RUE PRINCIPALE; ; ;02820;ST ERME OUTRE ET RAMECOURT;FRANCE;49.5146;3.83992;Géocodé au centre de la commune;3631;Non;Non;Non;Non;Non;Non;Oui;Non;Non;Non;Non;Non;Non;Non
00344A;ST GOBAIN BP;Bureau de poste;8 RUE LUCE DE LANCIVAL;;;02410;ST GOBAIN;FRANCE;49.5957210;3.3775667;Géocodé au milieu de la rue;3631;Non;Non;Non;Non;Non;Non;Oui;Non;Non;Oui;Non;Non;Non;Non
00345A;SAINT MICHEL BP;Bureau de poste;3 RUE LEON BLUM; ; ;02830;ST MICHEL;FRANCE;49.92;4.13581;Géocodé au centre de la commune;3631;Non;Oui;Non;Non;Non;Non;Oui;Non;Non;Non;Non;Non;Non;Non
00346A;SAINT QUENTIN BASILIQUE;Bureau de poste;1 RUE DE LYON;;;02100;ST QUENTIN;FRANCE;49.8467;3.29038;Géocodé au numéro;3631;Oui;Oui;Non;Oui;Non;Oui;Oui;Oui;Non;Oui;Oui;Oui;Non;Non
00347A;SAINT SIMON AP;Agence postale commnunale;RUE DES 2 LTS LECOMTE LARMUZEAU;AGENCE POSTALE COMMUNALE; ;02640;ST SIMON;FRANCE;49.744;3.17215;Géocodé au milieu de la rue;0323605238;Non;Non;Non;Non;Non;Non;Oui;Non;Non;Non;Non;Non;Non;Non
00348A;SEBONCOURT BP;Bureau de poste;24 RUE ROBERTINE DUBOIS;;;02110;SEBONCOURT;FRANCE;49.9538482;3.4759771;Géocodé au numéro;3631;Non;Non;Non;Non;Non;Non;Oui;Non;Non;Non;Non;Non;Non;Non
00349A;SERAIN AP;Agence postale commnunale;14 RUE DE LA LIBERTE; ; ;02110;SERAIN;FRANCE;50.0266;3.36804;Géocodé au numéro;0323094294;Non;Non;Non;Non;Non;Non;Oui;Non;Non;Non;Non;Non;Non;Non
00350A;SERAUCOURT LE GRAND AP;Relais poste commerçant;1 RUE DU VIEUX MOULIN;VIVAL LE PANIER EPICIER; ;02790;SERAUCOURT LE GRAND;FRANCE;49.78;3.21162;Géocodé au numéro;0323604046;Non;Non;Non;Non;Non;Non;Oui;Non;Non;Non;Non;Non;Non;Non
00351A;SINCENY BP;Bureau de poste;7 ALLEE HENRI BARBUSSE;;;02300;SINCENY;FRANCE;49.596032;3.252935;Géocodé au numéro;3631;Non;Non;Non;Non;Non;Non;Oui;Oui;Non;Oui;Non;Oui;Non;Non
00352A;SISSONNE BP;Bureau de poste;7 RUE DU MAL DE LATTRE DE TASSIGNY;;;02150;SISSONNE;FRANCE;49.5727626;3.8905676;Géocodé au numéro;3631;Non;Oui;Non;Non;Non;Non;Oui;Non;Non;Non;Oui;Non;Non;Non
00353A;SOISSONS SAINT MARTIN;Bureau de poste;74 RUE SAINT MARTIN;;;02200;SOISSONS;FRANCE;49.3801;3.32805;Géocodé au numéro;3631;Oui;Oui;Non;Oui;Non;Oui;Oui;Non;Oui;Non;Oui;Non;Non;Non
00354A;TAVAUX ET PONTSERICOURT AP;Relais poste commerçant;3 RUE DE MONTIGNY;BOULANGERIE PATISSERIE;;02250;TAVAUX ET PONTSERICOURT;FRANCE;49.7291;3.9052;Géocodé au centre de la commune;0323200482;Non;Non;Non;Non;Non;Non;Oui;Non;Non;Non;Non;Non;Non;Non
00355A;TERGNIER;Bureau de poste;14 AVENUE DU GENERAL DE GAULLE;;;02700;TERGNIER;FRANCE;49.6563;3.29215;Géocodé au numéro;3631;Oui;Oui;Non;Oui;Non;Oui;Oui;Oui;Non;Oui;Non;Oui;Non;Non
00356A;TRELOU SUR MARNE AP;Agence postale commnunale;3 RUE VICTOR HUGO; ; ;02850;TRELOU SUR MARNE;FRANCE;49.0748;3.60634;Géocodé au milieu de la rue;0323702757;Non;Non;Non;Non;Non;Non;Oui;Non;Non;Non;Non;Non;Non;Non
00357A;TROSLY LOIRE AP;Agence postale commnunale;RUE DES HOCQUES; ; ;02300;TROSLY LOIRE;FRANCE;49.5177;3.23102;Géocodé au milieu de la rue;0323388097;Non;Non;Non;Non;Non;Non;Oui;Non;Non;Non;Non;Non;Non;Non
00358A;TUPIGNY AP;Agence postale commnunale;RUE JACQUES FREMONT; ; ;02120;TUPIGNY;FRANCE;49.9566;3.6079;Géocodé au milieu de la rue;0323608283;Non;Non;Non;Non;Non;Non;Oui;Non;Non;Non;Non;Non;Non;Non
00359A;URCEL AP;Relais poste commerçant;26 ROUTE DES ROIS;BAR TABAC EPICERIE LES 3 FONTAINES;;02000;URCEL;FRANCE;49.4935;3.55562;Géocodé au numéro;0323211915;Non;Non;Non;Non;Non;Non;Oui;Non;Non;Non;Non;Non;Non;Non
00360A;VADENCOURT AP;Agence postale commnunale;15 RUE NICOLAS GRAIN;;;02120;VADENCOURT;FRANCE;49.9285;3.57443;Géocodé au milieu de la rue;0323612096;Non;Non;Non;Non;Non;Non;Oui;Non;Non;Non;Non;Non;Non;Non
00361A;VAILLY SUR AISNE BP;Bureau de poste;4 PLACE DU GENERAL FELIX; ; ;02370;VAILLY SUR AISNE;FRANCE;49.41;3.51741;Géocodé au milieu de la rue;3631;Non;Non;Non;Non;Non;Non;Oui;Non;Non;Non;Non;Non;Non;Non
00362A;VAUX ANDIGNY AP;Agence postale commnunale;PLACE DU GENERAL DE GAULLE; ; ;02110;VAUX ANDIGNY;FRANCE;50.0232;3.51106;Géocodé au milieu de la rue;0323661404;Non;Non;Non;Non;Non;Non;Oui;Non;Non;Non;Non;Non;Non;Non
00363A;VENDEUIL AP;Agence postale commnunale; ;8 RUE DE L HOTEL DIEU; ;02800;VENDEUIL;FRANCE;49.7161;3.35229;Géocodé au numéro;0323078389;Non;Non;Non;Non;Non;Non;Oui;Non;Non;Non;Non;Non;Non;Non
00364A;VENDHUILE AP;Agence postale commnunale;3 RUE NEUVE; ; ;02420;VENDHUILE;FRANCE;50.011;3.20919;Géocodé au milieu de la rue;0323662068;Non;Non;Non;Non;Non;Non;Oui;Non;Non;Non;Non;Non;Non;Non
00365A;VENIZEL BP;Bureau de poste;12 PLACE DE LA MAIRIE;;;02200;VENIZEL;FRANCE;49.3668;3.39462;Géocodé au milieu de la rue;3631;Non;Non;Non;Non;Non;Non;Oui;Non;Non;Non;Non;Non;Non;Non
00366A;VERMAND AP;Agence postale commnunale;11 PLACE DE L HOTEL DE VILLE; ; ;02490;VERMAND;FRANCE;49.8778;3.14958;Géocodé au numéro;0323665176;Non;Non;Non;Non;Non;Non;Oui;Non;Non;Non;Non;Non;Non;Non
00367A;VERSIGNY BP;Bureau de poste;7 GRANDE RUE;;;02800;VERSIGNY;FRANCE;49.6498;3.43805;Géocodé au milieu de la rue;3631;Non;Non;Non;Non;Non;Non;Oui;Non;Non;Non;Non;Non;Non;Non
00368A;VERVINS;Bureau de poste;6 PLACE DU PALAIS;;;02140;VERVINS;FRANCE;49.8338;3.90941;Géocodé au milieu de la rue;3631;Non;Oui;Non;Non;Non;Oui;Oui;Non;Non;Non;Oui;Non;Non;Non
00369A;VIC SUR AISNE BP;Bureau de poste;6 RUE DU GENERAL MAUNOURY; ; ;02290;VIC SUR AISNE;FRANCE;49.4041;3.11464;Géocodé au milieu de la rue;3631;Non;Oui;Non;Oui;Non;Non;Oui;Oui;Non;Oui;Non;Oui;Non;Non
00370A;VIELS MAISONS BP;Bureau de poste;7 GRANDE RUE;;;02540;VIELS MAISONS;FRANCE;48.896;3.39629;Géocodé au milieu de la rue;3631;Non;Non;Non;Non;Non;Non;Oui;Non;Non;Non;Non;Non;Non;Non
00371A;VILLENEUVE SAINT GERMAIN AP;Agence postale commnunale;RUE DE LA MAIRIE; ; ;02200;VILLENEUVE ST GERMAIN;FRANCE;49.3767;3.35055;Géocodé au centre de la commune;0323536513;Non;Non;Non;Non;Non;Non;Oui;Non;Non;Non;Non;Non;Non;Non
00372A;VILLERS COTTERETS;Bureau de poste;1 RUE DE VERDUN;;;02600;VILLERS COTTERETS;FRANCE;49.2537813;3.0905909;Géocodé au milieu de la rue;3631;Oui;Oui;Non;Oui;Non;Oui;Oui;Oui;Non;Oui;Non;Oui;Non;Non
00373A;VIVAISE AP;Relais poste commerçant;18 AVENUE D ILE DE FRANCE;CAFE TABAC COMMERCANT;;02870;VIVAISE;FRANCE;49.6239;3.55749;Géocodé au milieu de la rue;0323230172;Non;Non;Non;Non;Non;Non;Oui;Non;Non;Non;Non;Non;Non;Non
00374A;VOUEL AP;Agence postale commnunale;RUE DE GRASSE; ;VOUEL;02700;TERGNIER;FRANCE;49.658;3.279;Géocodé au numéro;0323570625;Non;Non;Non;Non;Non;Non;Oui;Non;Non;Non;Non;Non;Non;Non
00375A;WASSIGNY AP;Agence postale commnunale;2 PLACE DU DOCTEUR MARECHAL; ; ;02630;WASSIGNY;FRANCE;50.0137;3.59911;Géocodé au milieu de la rue;0323606216;Non;Non;Non;Non;Non;Non;Oui;Non;Non;Non;Non;Non;Non;Non
00376A;WIMY BP;Bureau de poste;4 RUE DE LA LIBERATION; ; ;02500;WIMY;FRANCE;49.9334;4.00042;Géocodé au numéro;3631;Non;Non;Non;Non;Non;Non;Oui;Non;Non;Non;Non;Non;Non;Non
00377A;SAINT QUENTIN SAINT MARTIN AP;Agence postale commnunale;132 RUE DE HAM; ; ;02100;ST QUENTIN;FRANCE;49.841;3.27128;Géocodé au numéro;0323642340;Non;Non;Non;Non;Non;Non;Oui;Non;Non;Non;Non;Non;Non;Non
00381A;LAON ILE DE FRANCE BP;Bureau de poste;9020 RUE CHARLES PEGUY;;;02000;LAON;FRANCE;49.5490474;3.6169946;Géocodé au milieu d un îlot;3631;Non;Oui;Non;Oui;Non;Oui;Oui;Non;Non;Non;Non;Non;Non;Non
00382A;LAON PLATEAU BP;Bureau de poste;6 RUE DU BOURG;;;02000;LAON;FRANCE;49.5646;3.6203;Géocodé au numéro;3631;Non;Oui;Non;Oui;Non;Oui;Oui;Non;Non;Non;Oui;Non;Non;Non
00383A;QUESSY CITE BP;Bureau de poste;2 RUE DE LA FRATERNITE; ;QUESSY;02700;TERGNIER;FRANCE;;;Non renseigné;3631;Non;Non;Non;Non;Non;Non;Oui;Non;Non;Non;Non;Non;Non;Non
00384A;SAINT QUENTIN FAUBOURG D ISLE BP;Bureau de poste;9 PLACE STALINGRAD;;;02100;ST QUENTIN;FRANCE;49.8365317;3.3060967;Géocodé au milieu d un îlot;3631;Oui;Oui;Non;Non;Non;Oui;Oui;Non;Non;Non;Oui;Oui;Non;Non
00385A;HIRSON AP;Agence postale commnunale;146 RUE CHARLES DE GAULLE; ; ;02500;HIRSON;FRANCE;49.9168;4.0862;Géocodé au numéro;0323580364;Non;Non;Non;Non;Non;Non;Oui;Non;Non;Non;Non;Non;Non;Non
00386A;LAON CHAMPAGNE BP;Bureau de poste;124 RUE PIERRE CURTIL; ; ;02000;LAON;FRANCE;49.5648;3.64345;Géocodé au numéro;3631;Non;Oui;Non;Non;Non;Oui;Oui;Non;Non;Non;Non;Non;Non;Non
00387A;ST QUENTIN EUROPE;Bureau de poste;46 AVENUE ROBERT SCHUMAN;;;02100;ST QUENTIN;FRANCE;49.8603;3.298452;Géocodé au numéro;3631;Oui;Oui;Non;Non;Non;Oui;Oui;Non;Non;Non;Non;Oui;Non;Non
00388A;SOISSONS PRESLES BP;Bureau de poste;2 BOULEVARD DE PRESLES; ; ;02200;SOISSONS;FRANCE;49.372;3.30407;Géocodé au milieu d un îlot;3631;Non;Oui;Non;Non;Non;Oui;Oui;Non;Non;Non;Non;Non;Non;Non
00391A;ABREST BP;Bureau de poste;AVENUE DE VICHY;;;03200;ABREST;FRANCE;46.09846;3.444782;Géocodé au numéro;3631;Non;Oui;Non;Oui;Non;Non;Non;Non;Non;Non;Oui;Non;Non;Non
00392A;AGONGES AP;Agence postale commnunale;LE BOURG; ; ;03210;AGONGES;FRANCE;46.6059;3.15849;Géocodé au centre de la commune;0470439427;Non;Non;Non;Non;Non;Non;Non;Non;Non;Non;Non;Non;Non;Non
00393A;AINAY LE CHATEAU BP;Bureau de poste;20 RUE DE L HORLOGE; ; ;03360;AINAY LE CHATEAU;FRANCE;46.7116;2.69327;Géocodé au milieu de la rue;3631;Non;Non;Non;Non;Non;Non;Non;Non;Non;Non;Non;Non;Non;Non
00394A;ARFEUILLES BP;Bureau de poste;PLACE DES VICTOIRES;;;03120;ARFEUILLES;FRANCE;46.1568;3.72689;Géocodé au milieu de la rue;3631;Non;Non;Non;Oui;Non;Non;Non;Non;Non;Non;Non;Non;Non;Non
00395A;ARPHEUILLES SAINT PRIEST AP;Agence postale commnunale;LE BOURG;;;03420;ARPHEUILLES SAINT PRIEST;FRANCE;46.2245;2.67682;Géocodé au centre de la commune;0470510709;Non;Non;Non;Non;Non;Non;Non;Non;Non;Non;Non;Non;Non;Non
00396A;MOULINS LES CHARTREUX AP;Agence postale commnunale;CENTRE COMMERCIAL DES CHARTREUX;MAIRIE ANNEXE; ;03000;MOULINS;FRANCE;46.5787;3.33213;Géocodé au milieu d un îlot;0470202373;Non;Non;Non;Non;Non;Non;Non;Non;Non;Non;Non;Non;Non;Non
00397A;AUDES BP;Bureau de poste;LE BOURG; ; ;03190;AUDES;FRANCE;46.4578;2.55796;Géocodé au numéro;3631;Non;Non;Non;Non;Non;Non;Non;Non;Non;Non;Non;Non;Non;Non
00398A;AVERMES AP;Agence postale commnunale;PRE BERCY 1; ; ;03000;AVERMES;FRANCE;46.576393;3.319813;Géocodé au numéro;0470441990;Non;Non;Non;Non;Non;Non;Non;Non;Non;Non;Non;Non;Non;Non
00399A;BAYET AP;Agence postale commnunale;LE BOURG; ; ;03500;BAYET;FRANCE;46.249;3.26674;Géocodé au centre de la commune;0470459648;Non;Non;Non;Non;Non;Non;Non;Non;Non;Non;Non;Non;Non;Non
00400A;BEAULON BP;Bureau de poste;2 RUE DE LA POSTE; ; ;03230;BEAULON;FRANCE;46.6006;3.67407;Géocodé au centre de la commune;3631;Non;Non;Non;Oui;Non;Non;Non;Oui;Non;Oui;Non;Oui;Non;Non
00401A;BELLENAVES BP;Bureau de poste;RUE DU ROUSSILLON; ; ;03330;BELLENAVES;FRANCE;46.1986;3.07938;Géocodé au milieu de la rue;3631;Non;Non;Non;Oui;Non;Non;Non;Non;Non;Oui;Non;Non;Non;Non
00402A;BELLERIVE SUR ALLIER;Bureau de poste;15 AVENUE JEAN JAURES;;;03700;BELLERIVE SUR ALLIER;FRANCE;46.117514;3.408798;Géocodé au numéro;3631;Non;Non;Non;Oui;Non;Oui;Oui;Oui;Oui;Oui;Non;Oui;Non;Oui
00403A;BERT AP;Relais poste commerçant;LE BOURG;CHEZ M DILIEN ET MME VLIEGEN;;03130;BERT;FRANCE;46.3244;3.70658;Géocodé au centre de la commune;0470996229;Non;Non;Non;Non;Non;Non;Non;Non;Non;Non;Non;Non;Non;Non
00404A;BESSAY SUR ALLIER BP;Bureau de poste;10 RUE ANDRE MESSAGER;;;03340;BESSAY SUR ALLIER;FRANCE;46.441143;3.361199;Géocodé au numéro;3631;Non;Non;Non;Non;Non;Non;Non;Non;Non;Non;Non;Non;Non;Non
00405A;BESSON BP;Bureau de poste;15 PLACE DE LA MAIRIE;LE BOURG;;03210;BESSON;FRANCE;46.4707;3.26299;Géocodé au milieu de la rue;3631;Non;Non;Non;Non;Non;Non;Non;Non;Non;Non;Non;Non;Non;Non
00406A;BEZENET BP;Bureau de poste;87 ROUTE NATIONALE;;;03170;BEZENET;FRANCE;46.328387;2.847522;Géocodé au numéro;3631;Non;Non;Non;Non;Non;Non;Non;Non;Non;Non;Non;Non;Non;Non
00407A;BILLY AP;Agence postale commnunale;RUE DU CHATEAU; ; ;03260;BILLY;FRANCE;46.2364;3.4285;Géocodé au milieu de la rue;0470435560;Non;Non;Non;Non;Non;Non;Non;Non;Non;Non;Non;Non;Non;Non
00408A;BIOZAT AP;Relais poste commerçant;46 GRANDE RUE; ; ;03800;BIOZAT;FRANCE;46.0788;3.27039;Géocodé au centre de la commune;0470565501;Non;Non;Non;Non;Non;Non;Non;Non;Non;Non;Non;Non;Non;Non
00409A;BOUCE AP;Agence postale commnunale;LIEU DIT LE BOURG; ; ;03150;BOUCE;FRANCE;46.3177;3.49291;Géocodé au centre de la commune;0470437315;Non;Non;Non;Non;Non;Non;Non;Non;Non;Non;Non;Non;Non;Non
00410A;BOURBON L ARCHAMBAULT;Bureau de poste;7 RUE DU MOULIN;;;03160;BOURBON L ARCHAMBAULT;FRANCE;46.5866;3.0573;Géocodé au milieu de la rue;3631;Non;Non;Non;Oui;Non;Non;Non;Non;Non;Non;Non;Non;Non;Non
00412A;LE BRETHON AP;Agence postale commnunale;LE BOURG; ; ;03350;LE BRETHON;FRANCE;46.5704;2.71672;Géocodé au centre de la commune;0470068797;Non;Non;Non;Non;Non;Non;Non;Non;Non;Non;Non;Non;Non;Non
00413A;LE BREUIL AP;Relais poste commerçant;LE BOURG; ; ;03120;LE BREUIL;FRANCE;46.1833;3.65785;Géocodé au centre de la commune;0470990806;Non;Non;Non;Non;Non;Non;Non;Non;Non;Non;Non;Non;Non;Non
00414A;BROUT VERNET BP;Bureau de poste;PLACE DE LA MAIRIE;;;03110;BROUT VERNET;FRANCE;46.188;3.27333;Géocodé au milieu de la rue;3631;Non;Non;Non;Oui;Non;Non;Non;Non;Non;Non;Non;Non;Non;Non
00415A;BUSSET AP;Agence postale commnunale;1 ROUTE DE LACHAUX;;;03270;BUSSET;FRANCE;46.0603;3.51505;Géocodé au numéro;0470416774;Non;Non;Non;Non;Non;Non;Non;Non;Non;Non;Non;Non;Non;Non
00416A;BUXIERES LES MINES BP;Bureau de poste;10 RUE GEORGES COPET; ; ;03440;BUXIERES LES MINES;FRANCE;46.4679;2.95991;Géocodé au milieu de la rue;3631;Non;Non;Non;Oui;Non;Non;Non;Non;Non;Non;Non;Non;Non;Non
00417A;CERILLY;Bureau de poste;58 AVENUE JEAN JAURES; ; ;03350;CERILLY;FRANCE;46.61698;2.821518;Géocodé au numéro;3631;Non;Non;Non;Non;Non;Non;Non;Oui;Non;Oui;Non;Oui;Non;Oui
00418A;LA CHABANNE AP;Agence postale commnunale;LIEU DIT BOURG; ; ;03250;LA CHABANNE;FRANCE;46.0218;3.75223;Géocodé au centre de la commune;0470564591;Non;Non;Non;Non;Non;Non;Non;Non;Non;Non;Non;Non;Non;Non
00420A;CHAMBLET BP;Bureau de poste;LE BOURG; ; ;03170;CHAMBLET;FRANCE;46.3329;2.70169;Géocodé au numéro;3631;Non;Non;Non;Non;Non;Non;Non;Non;Non;Non;Non;Non;Non;Non
00421A;CHANTELLE BP;Bureau de poste;PLACE DE L OSCAMBRE; ; ;03140;CHANTELLE;FRANCE;46.2372;3.15198;Géocodé au milieu de la rue;3631;Non;Non;Non;Non;Non;Non;Non;Oui;Non;Oui;Non;Oui;Non;Non
00422A;LA CHAPELAUDE BP;Bureau de poste;LE BOURG; ; ;03380;LA CHAPELAUDE;FRANCE;46.4198;2.50486;Géocodé au numéro;3631;Non;Non;Non;Non;Non;Non;Non;Oui;Non;Oui;Non;Oui;Non;Non
00423A;CHAPPES AP;Agence postale commnunale;LE BOURG; ; ;03390;CHAPPES;FRANCE;46.3879;2.92646;Géocodé au centre de la commune;0470074080;Non;Non;Non;Non;Non;Non;Non;Non;Non;Non;Non;Non;Non;Non
00424A;CHARROUX AP;Agence postale commnunale;RUE DE L HORLOGE; ; ;03140;CHARROUX;FRANCE;46.1851;3.16171;Géocodé au milieu de la rue;0470568574;Non;Non;Non;Non;Non;Non;Non;Non;Non;Non;Non;Non;Non;Non
00425A;CHATEL DE NEUVRE AP;Agence postale commnunale;LE BOURG; ; ;03500;CHATEL DE NEUVRE;FRANCE;46.4056;3.3113;Géocodé au centre de la commune;0470420689;Non;Non;Non;Non;Non;Non;Non;Non;Non;Non;Non;Non;Non;Non
00426A;CHATEL MONTAGNE AP;Agence postale commnunale;RUE JULIEN CHARPENTIER; ; ;03250;CHATEL MONTAGNE;FRANCE;46.1153;3.6828;Géocodé au milieu de la rue;0470411948;Non;Non;Non;Non;Non;Non;Non;Non;Non;Non;Non;Non;Non;Non
00427A;CHEMILLY AP;Agence postale commnunale;LE BOURG; ; ;03210;CHEMILLY;FRANCE;46.4868;3.31155;Géocodé au centre de la commune;0470428200;Non;Non;Non;Non;Non;Non;Non;Non;Non;Non;Non;Non;Non;Non
00428A;CHEVAGNES BP;Bureau de poste;1 ROUTE NATIONALE; ; ;03230;CHEVAGNES;FRANCE;46.610473;3.551513;Géocodé au numéro;3631;Non;Non;Non;Oui;Non;Non;Non;Non;Non;Oui;Non;Non;Non;Non
00429A;CINDRE AP;Relais poste commerçant;LE BOURG; ; ;03220;CINDRE;FRANCE;46.327;3.56487;Géocodé au centre de la commune;0470557131;Non;Non;Non;Non;Non;Non;Non;Non;Non;Non;Non;Non;Non;Non
00430A;COGNAT LYONNE AP;Agence postale commnunale;ROUTE  DE LYONNE; ; ;03110;COGNAT LYONNE;FRANCE;46.1096;3.31372;Géocodé au centre de la commune;0470565634;Non;Non;Non;Non;Non;Non;Non;Non;Non;Non;Non;Non;Non;Non
00431A;COMMENTRY;Bureau de poste;9 RUE CHRISTOPHE THIVRIER; ; ;03600;COMMENTRY;FRANCE;;;Non renseigné;3631;Non;Oui;Non;Oui;Non;Oui;Non;Non;Non;Non;Oui;Non;Non;Non
00432A;COSNE D ALLIER BP;Bureau de poste;PLACE DU MARCHE; ; ;03430;COSNE D ALLIER;FRANCE;46.4747;2.83202;Géocodé au milieu de la rue;3631;Non;Oui;Non;Oui;Non;Non;Non;Non;Non;Oui;Oui;Non;Non;Oui
00433A;COULANGES AP;Agence postale commnunale;LE BOURG; ; ;03470;COULANGES;FRANCE;46.4851;3.85943;Géocodé au centre de la commune;0470470314;Non;Non;Non;Non;Non;Non;Non;Non;Non;Non;Non;Non;Non;Non
00434A;COULEUVRE BP;Bureau de poste;24 RUE MARX DORMOY;;;03320;COULEUVRE;FRANCE;46.6713;2.90558;Géocodé au milieu de la rue;3631;Non;Non;Non;Non;Non;Non;Non;Non;Non;Oui;Non;Non;Non;Non
00435A;MOULINS JACQUEMART BP;Bureau de poste;19 RUE DE L HORLOGE;;;03000;MOULINS;FRANCE;46.565743;3.332572;Géocodé au numéro;3631;Non;Oui;Non;Oui;Non;Oui;Oui;Non;Non;Non;Non;Non;Non;Oui
00436A;CRECHY BP;Bureau de poste;MOULIN DE BARRIERE;;;03150;CRECHY;FRANCE;46.261;3.42475;Géocodé au centre de la commune;3631;Non;Non;Non;Non;Non;Non;Non;Non;Non;Non;Non;Non;Non;Non
00437A;CRESSANGES BP;Bureau de poste;LE BOURG; ; ;03240;CRESSANGES;FRANCE;46.4455;3.16079;Géocodé au centre de la commune;3631;Non;Non;Non;Non;Non;Non;Non;Non;Non;Non;Non;Non;Non;Non
00438A;CREUZIER LE VIEUX AP;Agence postale commnunale;RUE DE LA MAIRIE; ; ;03300;CREUZIER LE VIEUX;FRANCE;46.161731;3.43856;Géocodé au numéro;0470309362;Non;Non;Non;Non;Non;Non;Non;Non;Non;Non;Non;Non;Non;Non
00439A;CUSSET;Bureau de poste;10 RUE GAMBETTA;;;03300;CUSSET;FRANCE;46.1341;3.45551;Géocodé au numéro;3631;Oui;Oui;Non;Oui;Non;Oui;Oui;Non;Non;Oui;Non;Non;Non;Oui
00440A;SAINT PLAISIR AP;Agence postale commnunale;LE BOURG; ; ;03160;ST PLAISIR;FRANCE;46.6224;2.96817;Géocodé au centre de la commune;0470670362;Non;Non;Non;Non;Non;Non;Non;Non;Non;Non;Non;Non;Non;Non
00441A;DENEUILLE LES MINES AP;Agence postale commnunale;LE BOURG; ; ;03170;DENEUILLE LES MINES;FRANCE;46.3792;2.78078;Géocodé au centre de la commune;0470078020;Non;Non;Non;Non;Non;Non;Non;Non;Non;Non;Non;Non;Non;Non
00442A;DESERTINES BP;Bureau de poste;9 RUE JOLIOT CURIE; ; ;03630;DESERTINES;FRANCE;46.355355;2.618163;Géocodé au numéro;3631;Non;Non;Non;Non;Non;Non;Non;Oui;Non;Oui;Non;Oui;Non;Non
00443A;DEUX CHAISES AP;Agence postale commnunale;LE BOURG; ; ;03240;DEUX CHAISES;FRANCE;46.3797;3.03917;Géocodé au centre de la commune;0470471120;Non;Non;Non;Non;Non;Non;Non;Non;Non;Non;Non;Non;Non;Non
00444A;DIOU BP;Bureau de poste;3 GRANDE RUE;;;03290;DIOU;FRANCE;46.5315;3.74956;Géocodé au centre de la commune;3631;Non;Non;Non;Non;Non;Non;Non;Non;Non;Oui;Non;Non;Non;Non
00445A;DOMERAT;Bureau de poste;BOULEVARD VICTOR HUGO;;;03410;DOMERAT;FRANCE;46.3622;2.53384;Géocodé au numéro;3631;Non;Oui;Non;Non;Non;Non;Non;Oui;Non;Oui;Non;Oui;Non;Non
00446A;DOMPIERRE SUR BESBRE;Bureau de poste;284 RUE NATIONALE;;;03290;DOMPIERRE SUR BESBRE;FRANCE;46.5225;3.68062;Géocodé au milieu de la rue;3631;Non;Oui;Non;Non;Non;Non;Non;Non;Non;Oui;Oui;Non;Non;Non
00447A;LE DONJON BP;Bureau de poste;5 PLACE DE LA REPUBLIQUE; ; ;03130;LE DONJON;FRANCE;46.3505;3.79383;Géocodé au numéro;3631;Non;Non;Non;Oui;Non;Non;Non;Non;Non;Non;Non;Non;Non;Non
00448A;DOYET BP;Bureau de poste;PLACE JEAN JAURES; ; ;03170;DOYET;FRANCE;46.336;2.7989;Géocodé au numéro;3631;Non;Non;Non;Non;Non;Non;Non;Oui;Non;Oui;Non;Oui;Non;Non
00449A;DURDAT LAREQUILLE BP;Bureau de poste;PLACE DE L EGLISE; ; ;03310;DURDAT LAREQUILLE;FRANCE;46.2517;2.70134;Géocodé au numéro;3631;Non;Non;Non;Non;Non;Non;Non;Non;Non;Non;Non;Non;Non;Non
00450A;EBREUIL BP;Bureau de poste;5 PLACE DE LA MAIRIE; ; ;03450;EBREUIL;FRANCE;46.1154;3.08688;Géocodé au milieu de la rue;3631;Non;Non;Non;Oui;Non;Non;Non;Oui;Non;Oui;Non;Oui;Non;Non
00451A;ECHASSIERES AP;Agence postale commnunale;LIEU DIT LE BOURG; ; ;03330;ECHASSIERES;FRANCE;46.1841;2.93474;Géocodé au centre de la commune;3631;Non;Non;Non;Non;Non;Non;Non;Non;Non;Non;Non;Non;Non;Non
00452A;ESCUROLLES AP;Agence postale commnunale;LE BOURG; ; ;03110;ESCUROLLES;FRANCE;46.1417;3.26276;Géocodé au centre de la commune;0470416873;Non;Non;Non;Non;Non;Non;Non;Non;Non;Non;Non;Non;Non;Non
00453A;ESPINASSE VOZELLE AP;Agence postale commnunale;LE BOURG; ; ;03110;ESPINASSE VOZELLE;FRANCE;46.1272;3.3264;Géocodé au centre de la commune;0470565907;Non;Non;Non;Non;Non;Non;Non;Non;Non;Non;Non;Non;Non;Non
00454A;ESTIVAREILLES BP;Bureau de poste;LE BOURG; ; ;03190;ESTIVAREILLES;FRANCE;46.4249;2.61765;Géocodé au numéro;3631;Non;Non;Non;Non;Non;Non;Non;Non;Non;Non;Non;Non;Non;Non
00455A;ETROUSSAT AP;Agence postale commnunale;LE BOURG; ; ;03140;ETROUSSAT;FRANCE;46.2208;3.22255;Géocodé au centre de la commune;0470567241;Non;Non;Non;Non;Non;Non;Non;Non;Non;Non;Non;Non;Non;Non
00456A;FERRIERES SUR SICHON BP;Bureau de poste;PLACE DE LA POSTE;;;03250;FERRIERES SUR SICHON;FRANCE;46.0252;3.64948;Géocodé au milieu de la rue;3631;Non;Non;Non;Non;Non;Non;Non;Non;Non;Non;Non;Non;Non;Non
00457A;LALIZOLLE AP;Agence postale commnunale;LE BOURG; ; ;03450;LALIZOLLE;FRANCE;46.1568;3.00117;Géocodé au centre de la commune;0470904205;Non;Non;Non;Non;Non;Non;Non;Non;Non;Non;Non;Non;Non;Non
00458A;FLEURIEL AP;Agence postale commnunale;LE BOURG; ; ;03140;FLEURIEL;FRANCE;46.2817;3.17758;Géocodé au centre de la commune;0470569160;Non;Non;Non;Non;Non;Non;Non;Non;Non;Non;Non;Non;Non;Non
00459A;FRANCHESSE BP;Bureau de poste;LE BOURG; ; ;03160;FRANCHESSE;FRANCE;46.637;3.03653;Géocodé au centre de la commune;3631;Non;Non;Non;Non;Non;Non;Non;Non;Non;Non;Non;Non;Non;Non
00460A;GANNAT;Bureau de poste;2 AVENUE DE LA REPUBLIQUE;;;03800;GANNAT;FRANCE;46.0997;3.20181;Géocodé au milieu de la rue;3631;Non;Oui;Non;Oui;Non;Oui;Oui;Non;Non;Oui;Oui;Non;Non;Oui
00461A;GANNAY SUR LOIRE BP;Bureau de poste;LE BOURG; ; ;03230;GANNAY SUR LOIRE;FRANCE;46.7319;3.61187;Géocodé au numéro;3631;Non;Non;Non;Non;Non;Non;Non;Non;Non;Non;Non;Non;Non;Non
00462A;GARNAT SUR ENGIEVRE BP;Bureau de poste;LIEU DIT LE BOURG;;;03230;GARNAT SUR ENGIEVRE;FRANCE;46.6312;3.6653;Géocodé au centre de la commune;3631;Non;Non;Non;Non;Non;Non;Non;Non;Non;Non;Non;Non;Non;Non
00463A;GIPCY AP;Agence postale commnunale;LE BOURG; ; ;03210;GIPCY;FRANCE;46.5022;3.05452;Géocodé au numéro;0470473609;Non;Non;Non;Non;Non;Non;Non;Non;Non;Non;Non;Non;Non;Non
00464A;BRESNAY AP;Agence postale commnunale;1 ROUTE DE SOUVIGNY; ; ;03210;BRESNAY;FRANCE;46.443261;3.248273;Géocodé au numéro;0470428060;Non;Non;Non;Non;Non;Non;Non;Non;Non;Non;Non;Non;Non;Non
00465A;GOUISE AP;Agence postale commnunale;LE BOURG; ; ;03340;GOUISE;FRANCE;46.411;3.42985;Géocodé au centre de la commune;0470438103;Non;Non;Non;Non;Non;Non;Non;Non;Non;Non;Non;Non;Non;Non
00466A;HAUTERIVE AP;Relais poste commerçant;62 RUE DE LA REPUBLIQUE;CAFE RESTAURANT AERDAEN MURIEL; ;03270;HAUTERIVE;FRANCE;46.088734;3.446977;Géocodé au numéro;0470590049;Non;Non;Non;Non;Non;Non;Non;Non;Non;Non;Non;Non;Non;Non
00467A;HERISSON BP;Bureau de poste;PLACE LOUIS LAGARDE; ; ;03190;HERISSON;FRANCE;46.5082;2.71321;Géocodé au centre de la commune;3631;Non;Non;Non;Oui;Non;Non;Non;Oui;Non;Oui;Non;Oui;Non;Non
00468A;HURIEL BP;Bureau de poste;PLACE DE LA TOQUE; ; ;03380;HURIEL;FRANCE;46.373;2.47395;Géocodé au centre de la commune;3631;Non;Non;Non;Non;Non;Non;Non;Oui;Non;Oui;Non;Oui;Non;Non
00469A;ISSERPENT AP;Agence postale commnunale;MAIRIE LE BOURG;;;03120;ISSERPENT;FRANCE;46.1628;3.60824;Géocodé au centre de la commune;0470413658;Non;Non;Non;Non;Non;Non;Non;Non;Non;Non;Non;Non;Non;Non
00470A;JALIGNY SUR BESBRE BP;Bureau de poste;LE BOURG; ; ;03220;JALIGNY SUR BESBRE;FRANCE;46.3802;3.5948;Géocodé au centre de la commune;3631;Non;Non;Non;Oui;Non;Non;Non;Non;Non;Non;Non;Non;Non;Non
00471A;JENZAT AP;Agence postale commnunale;LE BOURG; ; ;03800;JENZAT;FRANCE;46.1605;3.19583;Géocodé au centre de la commune;0470568456;Non;Non;Non;Non;Non;Non;Non;Non;Non;Non;Non;Non;Non;Non
00472A;LAPALISSE;Bureau de poste;4 PLACE MARECHAL LECLERC;;;03120;LAPALISSE;FRANCE;46.2484;3.63422;Géocodé au milieu de la rue;3631;Non;Oui;Non;Oui;Non;Non;Non;Non;Non;Oui;Non;Non;Non;Oui
00473A;LAPRUGNE AP;Agence postale commnunale;LE BOURG; ; ;03250;LAPRUGNE;FRANCE;45.9857;3.7424;Géocodé au centre de la commune;0470412807;Non;Non;Non;Non;Non;Non;Non;Non;Non;Non;Non;Non;Non;Non
00475A;LENAX AP;Relais poste commerçant;LE BOURG; ; ;03130;LENAX;FRANCE;46.2986;3.81641;Géocodé au centre de la commune;0470552269;Non;Non;Non;Non;Non;Non;Non;Non;Non;Non;Non;Non;Non;Non
00477A;LOUROUX BOURBONNAIS AP;Agence postale commnunale;LE BOURG; ; ;03350;LOUROUX BOURBONNAIS;FRANCE;46.5358;2.84055;Géocodé au centre de la commune;0470075400;Non;Non;Non;Non;Non;Non;Non;Non;Non;Non;Non;Non;Non;Non
00478A;LOUROUX DE BOUBLE AP;Relais poste commerçant;LE BOURG;PRESSE-LIBRAIRIE CHEZ MME CHAUDEY;;03330;LOUROUX DE BOUBLE;FRANCE;46.2258;2.97861;Géocodé au centre de la commune;0470904608;Non;Non;Non;Non;Non;Non;Non;Non;Non;Non;Non;Non;Non;Non
00479A;LURCY LEVIS BP;Bureau de poste;69 BOULEVARD GAMBETTA; ; ;03320;LURCY LEVIS;FRANCE;46.7309;2.9391;Géocodé au numéro;3631;Non;Oui;Non;Non;Non;Non;Non;Non;Non;Oui;Non;Non;Non;Non
00480A;LUSIGNY BP;Bureau de poste;3 PLACE DE L EGLISE;;;03230;LUSIGNY;FRANCE;46.5903;3.48687;Géocodé au centre de la commune;3631;Non;Non;Non;Non;Non;Non;Non;Non;Non;Oui;Non;Non;Non;Non
00481A;MAGNET AP;Relais poste commerçant;8 RUE DU BOURG;RELAIS DES MOUSQUETAIRES; ;03260;MAGNET;FRANCE;46.2168;3.50149;Géocodé au milieu de la rue;0470580963;Non;Non;Non;Non;Non;Non;Non;Non;Non;Non;Non;Non;Non;Non
00482A;MARCILLAT EN COMBRAILLE BP;Bureau de poste;LE BOURG; ; ;03420;MARCILLAT EN COMBRAILLE;FRANCE;46.1663;2.63433;Géocodé au centre de la commune;3631;Non;Non;Non;Non;Non;Non;Non;Non;Non;Non;Non;Non;Non;Non
00483A;MARIOL AP;Agence postale commnunale;LE BOURG; ; ;03270;MARIOL;FRANCE;46.0215;3.49749;Géocodé au centre de la commune;0470592188;Non;Non;Non;Non;Non;Non;Non;Non;Non;Non;Non;Non;Non;Non
00484A;LE MAYET DE MONTAGNE BP;Bureau de poste;RUE FRANCISQUE DRIFFORT;;;03250;LE MAYET DE MONTAGNE;FRANCE;46.0712;3.66735;Géocodé au milieu de la rue;3631;Non;Non;Non;Oui;Non;Non;Non;Oui;Non;Oui;Non;Oui;Non;Non
00485A;MEAULNE AP;Agence postale commnunale;PLACE DE LA MAIRIE; ; ;03360;MEAULNE;FRANCE;46.5982;2.61673;Géocodé au milieu de la rue;0470086672;Non;Non;Non;Non;Non;Non;Non;Non;Non;Non;Non;Non;Non;Non
00486A;MOLINET BP;Bureau de poste;LE BOURG; ; ;03510;MOLINET;FRANCE;46.46602;3.936474;Géocodé au numéro;3631;Non;Non;Non;Non;Non;Non;Non;Non;Non;Non;Non;Non;Non;Non
00487A;MOLLES AP;Relais poste commerçant;LE BOURG; ; ;03300;MOLLES;FRANCE;46.1096;3.55899;Géocodé au milieu de la rue;0470418025;Non;Non;Non;Non;Non;Non;Non;Non;Non;Non;Non;Non;Non;Non
00488A;MONETAY SUR LOIRE AP;Agence postale commnunale;LE BOURG; ; ;03470;MONETAY SUR LOIRE;FRANCE;46.4295;3.81753;Géocodé au centre de la commune;0470422090;Non;Non;Non;Non;Non;Non;Non;Non;Non;Non;Non;Non;Non;Non
00489A;MONTAIGUET EN FOREZ  AP;Agence postale commnunale;ANCIENNE ECOLE COMMUNALE; ; ;03130;MONTAIGUET EN FOREZ;FRANCE;46.2707;3.80145;Géocodé au centre de la commune;0470552355;Non;Non;Non;Non;Non;Non;Non;Non;Non;Non;Non;Non;Non;Non
00490A;MONTAIGU LE BLIN AP;Agence postale commnunale;LE CORBILLON; ; ;03150;MONTAIGU LE BLIN;FRANCE;46.2968;3.51093;Géocodé au milieu de la rue;0470437277;Non;Non;Non;Non;Non;Non;Non;Non;Non;Non;Non;Non;Non;Non
00491A;MONTBEUGNY AP;Agence postale commnunale;RUE DE L  AGRICULTURE; ; ;03340;MONTBEUGNY;FRANCE;46.5284;3.48688;Géocodé au milieu de la rue;0470445104;Non;Non;Non;Non;Non;Non;Non;Non;Non;Non;Non;Non;Non;Non
00492A;MONTCOMBROUX LES MINES AP;Agence postale commnunale;RUE PRINCIPALE; ; ;03130;MONTCOMBROUX LES MINES;FRANCE;46.3532;3.69101;Géocodé au centre de la commune;0470996110;Non;Non;Non;Non;Non;Non;Non;Non;Non;Non;Non;Non;Non;Non
00493A;LE MONTET BP;Bureau de poste;2 RUE DU FAUBOURG SAINT POURCAIN; ; ;03240;LE MONTET;FRANCE;46.408958;3.0562;Géocodé au numéro;3631;Non;Non;Non;Non;Non;Non;Non;Oui;Non;Oui;Non;Oui;Non;Non
00494A;MONTLUCON CHATEAU;Bureau de poste;PLACE PIQUANT; ; ;03100;MONTLUCON;FRANCE;46.3399;2.60232;Géocodé au numéro;3631;Oui;Oui;Non;Non;Non;Oui;Oui;Oui;Non;Oui;Oui;Oui;Non;Oui
00495A;MONTMARAULT BP;Bureau de poste;12 BOULEVARD CARNOT; ; ;03390;MONTMARAULT;FRANCE;46.3172;2.94976;Géocodé au milieu de la rue;3631;Non;Non;Non;Non;Non;Non;Non;Non;Non;Oui;Non;Non;Non;Oui
00496A;MONTVICQ BP;Bureau de poste;PLACE DE L EGLISE;;;03170;MONTVICQ;FRANCE;46.320204;2.82192;Géocodé au numéro;3631;Non;Non;Non;Non;Non;Non;Non;Oui;Non;Oui;Non;Oui;Non;Non
00497A;MOULINS LES MARINIERS;Bureau de poste;40 PLACE JEAN MOULIN;;;03000;MOULINS;FRANCE;46.566656;3.326553;Géocodé au numéro;3631;Non;Oui;Non;Oui;Non;Oui;Oui;Non;Oui;Oui;Oui;Non;Non;Oui
00498A;MURAT AP;Agence postale commnunale;LE BOURG; ; ;03390;MURAT;FRANCE;46.4027;2.91051;Géocodé au centre de la commune;0470074837;Non;Non;Non;Non;Non;Non;Non;Non;Non;Non;Non;Non;Non;Non
00499A;NAVES AP;Agence postale commnunale;1 RUE DE L EGLISE;;;03330;NAVES;FRANCE;46.175;3.10749;Géocodé au milieu de la rue;0470566397;Non;Non;Non;Non;Non;Non;Non;Non;Non;Non;Non;Non;Non;Non
00500A;NERIS LES BAINS BP;Bureau de poste;RUE VOLTAIRE; ; ;03310;NERIS LES BAINS;FRANCE;46.285953;2.66257;Géocodé au numéro;3631;Non;Non;Non;Non;Non;Non;Non;Non;Non;Oui;Non;Non;Non;Non
00501A;NEUILLY LE REAL BP;Bureau de poste;13 PLACE DE LA MAIRIE;;;03340;NEUILLY LE REAL;FRANCE;46.464534;3.432412;Géocodé au numéro;3631;Non;Non;Non;Non;Non;Non;Non;Non;Non;Non;Non;Non;Non;Non
00502A;NOYANT D ALLIER BP;Bureau de poste;33 RUE DE LA MINE;LIEU DIT LES GAUDIONS; ;03210;NOYANT D ALLIER;FRANCE;46.481;3.12755;Géocodé au milieu de la rue;3631;Non;Non;Non;Non;Non;Non;Non;Non;Non;Non;Non;Non;Non;Non
00503A;LA PETITE MARCHE AP;Agence postale commnunale;LE BOURG; ; ;03420;LA PETITE MARCHE;FRANCE;46.1939;2.57178;Géocodé au centre de la commune;0470517100;Non;Non;Non;Non;Non;Non;Non;Non;Non;Non;Non;Non;Non;Non
00504A;PIERREFITTE SUR LOIRE AP;Agence postale commnunale;ROUTE DE DIGOIN; ; ;03470;PIERREFITTE SUR LOIRE;FRANCE;46.5059;3.81734;Géocodé au centre de la commune;0470470418;Non;Non;Non;Non;Non;Non;Non;Non;Non;Non;Non;Non;Non;Non
00505A;LE PIN AP;Agence postale commnunale;4 RUE DE LA MAIRIE; ; ;03130;LE PIN;FRANCE;46.4137;3.89587;Géocodé au milieu de la rue;0470556025;Non;Non;Non;Non;Non;Non;Non;Non;Non;Non;Non;Non;Non;Non
00506A;POUZY MESANGY BP;Bureau de poste;RTE DE LURCY LEVIS; ; ;03320;POUZY MESANGY;FRANCE;46.7085;3.00346;Géocodé au centre de la commune;3631;Non;Non;Non;Non;Non;Non;Non;Non;Non;Non;Non;Non;Non;Non
00507A;PREMILHAT AP;Relais poste commerçant;7 RUE DES PERCHES;CHEZ MR   SKIBICKI YOANN;;03410;PREMILHAT;FRANCE;46.314469;2.537622;Géocodé au numéro;0470514970;Non;Non;Non;Non;Non;Non;Non;Non;Non;Non;Non;Non;Non;Non
00508A;QUINSSAINES AP;Agence postale commnunale;LE BOURG; ; ;03380;QUINSSAINES;FRANCE;46.326461;2.51147;Géocodé au numéro;0470518266;Non;Non;Non;Non;Non;Non;Non;Non;Non;Non;Non;Non;Non;Non
00509A;RONGERES AP;Relais poste commerçant;1 PLACE DES TILLEULS;LE BON VIVRE;;03150;RONGERES;FRANCE;46.2946;3.44948;Géocodé au centre de la commune;0470450650;Non;Non;Non;Non;Non;Non;Non;Non;Non;Non;Non;Non;Non;Non
00510A;SAINT ANGEL AP;Relais poste commerçant;1 ROUTE DE VILLEFRANCHE;LE SAINT ANGEL BAR  RESTAURANT; ;03170;ST ANGEL;FRANCE;46.3572;2.69835;Géocodé au centre de la commune;0470037505;Non;Non;Non;Non;Non;Non;Non;Non;Non;Non;Non;Non;Non;Non
00511A;SAINT BONNET DE ROCHEFORT AP;Relais poste commerçant;1 ROUTE DE VICQ;MULTI SERVICE VIVAL; ;03800;ST BONNET DE ROCHEFORT;FRANCE;46.1462;3.13771;Géocodé au centre de la commune;0470585244;Non;Non;Non;Non;Non;Non;Non;Non;Non;Non;Non;Non;Non;Non
00512A;SAINT BONNET TRONCAIS BP;Bureau de poste;12 PLACE DE L EGLISE;;;03360;ST BONNET TRONCAIS;FRANCE;46.6601;2.69412;Géocodé au milieu de la rue;3631;Non;Non;Non;Non;Non;Non;Non;Non;Non;Non;Non;Non;Non;Non
00513A;SAINT DESIRE COURCAIS BP;Bureau de poste;12 RUE DE LA POSTE; ; ;03370;ST DESIRE;FRANCE;46.4977;2.4308;Géocodé au centre de la commune;3631;Non;Non;Non;Non;Non;Non;Non;Non;Non;Non;Non;Non;Non;Non
00514A;SAINT DIDIER LA FORET BP;Bureau de poste;ROUTE DE VICHY;;;03110;ST DIDIER LA FORET;FRANCE;46.2269;3.34274;Géocodé au numéro;3631;Non;Non;Non;Non;Non;Non;Non;Non;Non;Non;Non;Non;Non;Non
00515A;SAINT ENNEMOND AP;Relais poste commerçant;7 BIS RUE DU BOURBONNAIS;MULTISERVICES MME THOMAS NATHALIE;;03400;ST ENNEMOND;FRANCE;46.6753;3.42112;Géocodé au milieu de la rue;0470421390;Non;Non;Non;Non;Non;Non;Non;Non;Non;Non;Non;Non;Non;Non
00516A;SAINT ETIENNE DE VICQ AP;Agence postale commnunale;LE BOURG;;;03300;ST ETIENNE DE VICQ;FRANCE;46.1773;3.53351;Géocodé au centre de la commune;0470310005;Non;Non;Non;Non;Non;Non;Non;Non;Non;Non;Non;Non;Non;Non
00517A;SAINT GERAND DE VAUX AP;Relais poste commerçant;LE BOURG; ; ;03340;ST GERAND DE VAUX;FRANCE;46.3796;3.39692;Géocodé au centre de la commune;0470450003;Non;Non;Non;Non;Non;Non;Non;Non;Non;Non;Non;Non;Non;Non
00518A;SAINT GERAND LE PUY BP;Bureau de poste;5 RUE DU COMMERCE;;;03150;ST GERAND LE PUY;FRANCE;46.2575;3.51193;Géocodé au milieu de la rue;3631;Non;Non;Non;Oui;Non;Non;Non;Oui;Non;Oui;Non;Oui;Non;Non
00519A;SAINT GERMAIN DES FOSSES;Bureau de poste;1 RUE DU MOULIN FROID;;;03260;ST GERMAIN DES FOSSES;FRANCE;46.207365;3.433743;Géocodé au numéro;3631;Non;Oui;Non;Oui;Non;Non;Non;Non;Non;Non;Non;Non;Non;Non
00520A;SAINT GERMAIN DE SALLES AP;Agence postale commnunale;LE BOURG; ; ;03140;ST GERMAIN DE SALLES;FRANCE;46.1807;3.21366;Géocodé au centre de la commune;0470568100;Non;Non;Non;Non;Non;Non;Non;Non;Non;Non;Non;Non;Non;Non
00521A;SAINT HILAIRE BP;Bureau de poste;RUE DE LA POSTE;;;03440;ST HILAIRE;FRANCE;46.494088;3.020972;Géocodé au numéro;3631;Non;Non;Non;Non;Non;Non;Non;Non;Non;Non;Non;Non;Non;Non
00522A;SAINT LEON AP;Agence postale commnunale;LE BOURG; ; ;03220;ST LEON;FRANCE;46.4028;3.6872;Géocodé au centre de la commune;0470421858;Non;Non;Non;Non;Non;Non;Non;Non;Non;Non;Non;Non;Non;Non
